Id,Station,Address,Latitude,Longitude
1,Abbey Road,"Abbey Road, London E15, UK",51.53193,0.00376
2,Abbey Wood,"Abbey Wood, London SE2, UK",51.494107,0.121262
3,Aber,"Aber, Gwynedd LL33, UK",53.236641,-4.024252
4,Abercynon,"Abercynon, Rhondda Cynon Taff, UK",51.647512,-3.3293529
5,Abercynon,"Abercynon, Rhondda Cynon Taff, UK",51.647512,-3.3293529
6,Abercynon North,"Abercynon, Rhondda Cynon Taff, UK",51.647512,-3.3293529
7,Aberdare,"Aberdare, Rhondda Cynon Taff CF44, UK",51.716154,-3.451816
8,Aberdeen,"Aberdeen, Aberdeen City, UK",57.149717,-2.094278
9,Aberdour,"Aberdour, Fife, UK",56.054679,-3.30273
10,Aberdovey,"Aberdovey, Gwynedd, UK",52.543963,-4.046093
11,Abererch,"Abererch, Gwynedd LL53, UK",52.903768,-4.381498
12,Abergavenny,"Abergavenny, Monmouthshire NP7, UK",51.825366,-3.019423
13,Abergele & Pensarn,"Abergele & Pensarn, Pensarn, Conwy LL22, UK",53.2945886,-3.582625
14,Aberystwyth,"Aberystwyth, Ceredigion, UK",52.415303,-4.08292
15,Accrington,"Accrington, Lancashire, UK",53.753609,-2.37218
16,Achanalt,"Achanalt, Garve, Highland IV23, UK",57.6095764,-4.913846
17,Achnasheen,"Achnasheen, Highland IV22, UK",57.581087,-5.082511
18,Achnashellach,"Achnashellach, Strathcarron, Highland IV54, UK",57.4820517,-5.3330495
19,Acklington,"Acklington, Northumberland NE65, UK",55.309754,-1.64182
20,Acle,"Acle, Norfolk NR13, UK",52.638278,1.550643
21,Acocks Green,"Acocks Green, Birmingham, West Midlands B27, UK",52.443155,-1.829907
22,Acton Bridge,"Acton Bridge, Cheshire West and Chester CW8, UK",53.27404,-2.607693
23,Acton Central,"Acton Central, London W3, UK",51.5087157,-0.2629476
24,Acton Main Line,"Acton Main Line, London W3, UK",51.5171797,-0.2667333
25,Acton Town,"Acton Town, London W3, UK",51.50306,-0.28044
26,Adderley Park,"Adderley Park, Birmingham, West Midlands B8, UK",52.4830988,-1.8559396
27,Addiewell,"Addiewell, West Lothian, UK",55.845341,-3.614513
28,Addington Village,"Addington, Kent ME19, UK",51.305996,0.3745839
29,Addlestone,"Addlestone, Surrey, UK",51.369813,-0.488641
30,Adisham,"Adisham, Kent CT3, UK",51.240668,1.187223
31,Adlington (Cheshire),"Adlington (Cheshire), Macclesfield, Cheshire East SK10, UK",53.3195696,-2.1335616
32,Adlington (Lancashire),"Adlington, Lancashire, UK",53.611055,-2.606365
33,Adwick,"Adwick upon Dearne, South Yorkshire, UK",53.510281,-1.293788
34,Aigburth,"Aigburth, Liverpool, Merseyside L17, UK",53.367285,-2.924288
35,Ainsdale,"Ainsdale, Southport, Merseyside PR8, UK",53.602375,-3.037908
36,Aintree,"Aintree, Liverpool, Merseyside L10, UK",53.479322,-2.937284
37,Airbles,"Airbles, Motherwell, North Lanarkshire ML1, UK",55.7828282,-3.9941847
38,Airdrie,"Airdrie, North Lanarkshire, UK",55.866267,-3.962566
39,Albany Park,"Albany Park, Chicago, IL, USA",41.9689723,-87.7197245
40,Albrighton,"Albrighton, Shropshire, UK",52.633035,-2.28022
41,Alderley Edge,"Alderley Edge, Cheshire East, UK",53.301554,-2.237216
42,Aldermaston,"Aldermaston, West Berkshire RG7, UK",51.384033,-1.155134
43,Aldershot,"Aldershot, Hampshire, UK",51.248366,-0.7557509
44,Aldgate,"Aldgate SA 5154, Australia",-35.0151752,138.735877
45,Aldgate East,"Aldgate East, London E1, UK",51.51504,-0.07236
46,Aldrington,"Aldrington, Hove, The City of Brighton and Hove BN3, UK",50.834494,-0.190758
47,Alexandra Palace,"Alexandra Palace, Alexandra Palace Way, Wood Green, London N22 7AY, UK",51.593642,-0.131921
48,Alexandra Parade,"Alexandra Parade, Glasgow, Glasgow City G31, UK",55.8631647,-4.2106341
49,Alexandria,"Alexandria, Alexandria Governorate, Egypt",31.2000924,29.9187387
50,Alfreton,"Alfreton, Derbyshire DE55, UK",53.09745,-1.382256
51,Allen's West,"Allens West, Stockton-on-Tees TS16, UK",54.5246329,-1.3611286
52,Alloa,"Alloa, Clackmannanshire, UK",56.114073,-3.791896
53,All Saints,"All Saints, Poplar, London E14, UK",51.511,-0.01311
54,Alness,"Alness, Highland, UK",57.695955,-4.256825
55,Alnmouth,"Alnmouth, Northumberland NE66, UK",55.386945,-1.611864
56,Alperton,"Alperton, Wembley, Greater London HA0, UK",51.539896,-0.290454
57,Alresford,"Alresford, Hampshire SO24, UK",51.090113,-1.165786
58,Alsager,"Alsager, Cheshire East ST7, UK",53.095402,-2.304657
59,Althorne,"Althorne, Essex CM3, UK",51.65453,0.763506
60,Althorpe,"Althorp, Northamptonshire NN7, UK",52.28,-1
61,Altnabreac,"Altnabreac, Halkirk, Highland KW12, UK",58.388133,-3.7062872
62,Alton,"Alton, Hampshire GU34, UK",51.150719,-0.973177
63,Altrincham,"Altrincham, UK",53.39018,-2.350904
64,Alvechurch,"Alvechurch, Worcestershire, UK",52.351897,-1.96031
65,Ambergate,"Ambergate, Derbyshire DE56, UK",53.061472,-1.483764
66,Amberley,"Amberley, West Sussex BN18, UK",50.90654,-0.533927
67,Amersham,"Amersham, Buckinghamshire, UK",51.6755179,-0.607241
68,Amersham (Underground),"Amersham, Buckinghamshire, UK",51.6755179,-0.607241
69,Ammanford,"Ammanford, Carmarthenshire, UK",51.792888,-3.988459
70,Ampere Way,"Ampere Way, Croydon, Greater London CR0 4UZ, UK",51.3819791,-0.123944
71,Ancaster,"Ancaster, Hamilton, ON, Canada",43.2177791,-79.9872835
72,Andover,"Andover, Hampshire, UK",51.2111975,-1.4919233
73,Anerley,"Anerley, London SE20, UK",51.408661,-0.059686
74,Angel,"Angel, London N1, UK",51.53262,-0.10587
75,Angel Road,"Angel Road, London N18, UK",51.6124048,-0.0487663
76,Angmering,"Angmering, West Sussex, UK",50.829189,-0.483919
77,Annan,"Annan, Dumfries and Galloway DG12, UK",54.990246,-3.259773
78,Anniesland,"Anniesland, Glasgow, Glasgow City G13, UK",55.8901749,-4.3254629
79,Ansdell & Fairhaven,"Ansdell & Fairhaven, Lytham Saint Annes, Lancashire FY8, UK",53.7414756,-2.9930314
80,Appleby,"Appleby, North Lincolnshire DN15, UK",53.622283,-0.566632
81,Appledore,"Appledore, Devon, UK",51.053778,-4.193056
82,Appleford,"Appleford, Oxfordshire OX14, UK",51.640009,-1.2409889
83,Appley Bridge,"Appley Bridge, Lancashire, UK",53.584356,-2.722712
84,Apsley,"Apsley VIC 3319, Australia",-36.9685451,141.08323
85,Arbroath,"Arbroath, Angus, UK",56.559107,-2.591543
86,Archway,"Archway, London N19, UK",51.56548,-0.13479
87,Ardgay,"Ardgay, Highland IV24, UK",57.881213,-4.363214
88,Ardlui,"Ardlui, Argyll and Bute G83, UK",56.301669,-4.722054
89,Ardrossan Harbour,"Ardrossan Harbour, Ardrossan, North Ayrshire KA22, UK",55.6398685,-4.8210877
90,Ardrossan South Beach,"Ardrossan South Beach, Ardrossan, North Ayrshire KA22, UK",55.6414124,-4.8011891
91,Ardrossan Town,"Ardrossan Town, Ardrossan, North Ayrshire KA22, UK",55.6397027,-4.8126526
92,Arena,"Arena, London SE25, UK",51.39152,-0.05832
93,Argyle Street,"Argyle Street, Glasgow, Glasgow City, UK",55.8618535,-4.2725519
94,Arisaig,"Arisaig, Highland PH39, UK",56.909856,-5.843095
95,Arlesey,"Arlesey, Central Bedfordshire, UK",52.015347,-0.26326
96,Armadale,"Armadale, West Lothian EH48, UK",55.897742,-3.702162
97,Armathwaite,"Armathwaite, Cumbria CA4, UK",54.807416,-2.770024
98,Arnos Grove,"Arnos Grove, London N11, UK",51.61645,-0.13304
99,Arnside,"Arnside, Cumbria, UK",54.203808,-2.832755
100,Arram,"Arram, East Riding of Yorkshire HU17, UK",53.883091,-0.417271
101,Arrochar & Tarbet,"Arrochar & Tarbet, Arrochar, Argyll and Bute G83, UK",56.2039605,-4.7227534
102,Arsenal,"Arsenal, London N5, UK",51.55865,-0.10743
103,Arundel,"Arundel, West Sussex BN18, UK",50.855171,-0.555119
104,Ascot,"Ascot, Windsor and Maidenhead SL5, UK",51.4091845,-0.6725824
105,Ascott-Under-Wychwood,"Ascott-under-Wychwood, Oxfordshire OX7, UK",51.865885,-1.563271
106,Ash,"Ash House, Lancaster University, Lancaster, Lancashire LA1 4YT, UK",54.011946,-2.7862717
107,Ashburys,"Ashburys, Manchester M12, UK",53.4716522,-2.1944348
108,Ashchurch,"Ashchurch, Gloucestershire GL20, UK",51.997775,-2.1047349
109,Ashfield,"Ashfield NSW 2131, Australia",-33.8885698,151.1241979
110,Ashford International,"Ashford International, Ashford, Kent TN23, UK",51.1437037,0.8762284
111,Ashford (Middlesex),"Ashford Drive, Plainsboro Township, NJ 08536, USA",40.3263717,-74.5613572
112,Ashley,"Ashley, Altrincham, Cheshire East WA15, UK",53.3560094,-2.3410104
113,Ashtead,"Ashtead, Surrey, UK",51.310684,-0.296968
114,Ashton-Under-Lyne,"Ashton-under-Lyne, UK",53.494245,-2.104057
115,Ashurst,"Ashurst, Hampshire SO40, UK",50.89754,-1.517259
116,Ashurst New Forest,"Ashurst New Forest, New Forest National Park, Southampton, Hampshire SO40, UK",50.8898408,-1.526623
117,Ash Vale,"Ash Vale, Surrey, UK",51.264376,-0.7219719
118,Ashwell & Morden,"Ashwell & Morden, Baldock, Cambridgeshire SG7, UK",52.0307802,-0.1097608
119,Askam,"Askam, Askam-in-Furness, Cumbria LA16, UK",54.1889366,-3.2045107
120,Aslockton,"Aslockton, Nottinghamshire NG13, UK",52.953347,-0.894771
121,Aspatria,"Aspatria, Cumbria CA7, UK",54.763442,-3.333129
122,Aspley Guise,"Aspley Guise, Central Bedfordshire, UK",52.010696,-0.62743
123,Aston,"Aston, South Yorkshire, UK",53.3630179,-1.29214
124,Atherstone,"Atherstone, Warwickshire CV9, UK",52.576614,-1.543763
125,Atherton,"Atherton, UK",53.524011,-2.49227
126,Attadale,"Attadale WA 6156, Australia",-32.0314195,115.8093273
127,Attenborough,"Attenborough, Nottingham, Nottinghamshire NG9, UK",52.906541,-1.231287
128,Attleborough,"Attleborough, Norfolk, UK",52.518064,1.015527
129,Auchinleck,"Auchinleck, East Ayrshire KA18, UK",55.473388,-4.298566
130,Audley End,"Audley End, Essex CB11, UK",52.019705,0.224046
131,Aughton Park,"Aughton Park, Aughton, Lancashire L39, UK",53.5542617,-2.895219
132,Avenue Road,"Avenue Road, Lurgan, Craigavon BT66 7BB, UK",54.4586531,-6.3196682
133,Aviemore,"Aviemore, Highland PH22, UK",57.19449,-3.823812
134,Avoncliff,"Avoncliff, Wiltshire BA15, UK",51.3382755,-2.2821682
135,Avonmouth,"Avonmouth, Bristol, City of Bristol BS11, UK",51.503457,-2.698444
136,Axminster,"Axminster, Devon EX13, UK",50.782727,-2.994937
137,Aylesbury,"Aylesbury, Buckinghamshire, UK",51.815606,-0.8084
138,Aylesbury Vale Parkway,"Aylesbury Vale Parkway, Aylesbury, Buckinghamshire HP18, UK",51.8311642,-0.86016
139,Aylesford,"Aylesford, Kent ME20, UK",51.304309,0.47806
140,Aylesham,"Aylesham, Kent, UK",51.2251035,1.2008551
141,Ayr,"Ayr, South Ayrshire, UK",55.458564,-4.629179
142,Bache,"Bache, Shropshire SY7, UK",52.431615,-2.782749
143,Baglan,"Baglan, Neath Port Talbot, UK",51.619954,-3.814203
144,Bagshot,"Bagshot, Surrey, UK",51.360343,-0.697894
145,Baildon,"Baildon, West Yorkshire, UK",53.852716,-1.768142
146,Baillieston,"Baillieston, Glasgow, Glasgow City, UK",55.8512984,-4.1159938
147,Baker Street,"Baker Street, Orsett, Thurrock RM16, UK",51.507805,0.351672
148,Balcombe,"Balcombe, West Sussex RH17, UK",51.058563,-0.12794
149,Baldock,"Baldock, Hertfordshire, UK",51.9895039,-0.189128
150,Balham,"08190 Balham, France",49.49134,4.160311
151,Balloch,"Balloch, West Dunbartonshire, UK",56.002716,-4.580081
152,Balmossie,"Balmossie, Monifieth, Angus DD5, UK",56.4745545,-2.8389592
153,Bamber Bridge,"Bamber Bridge, Lancashire PR5, UK",53.7323749,-2.6612285
154,Bamford,"Bamford, Derbyshire S33, UK",53.34863,-1.686771
155,Banavie,"Banavie, Highland PH33, UK",56.845288,-5.098736
156,Banbury,"Banbury, Oxfordshire, UK",52.0629009,-1.339775
157,Bangor (Gwynedd),"Bangor, Gwynedd, UK",53.22739,-4.129263
158,Bank,"Bank, London EC3V, UK",51.51323,-0.08849
159,Bank Hall,"Bank Hall, Liverpool, Merseyside L20, UK",53.4375082,-2.9875108
160,Banstead,"Banstead, Surrey, UK",51.3221909,-0.205046
161,Barassie,"Barassie, Troon, South Ayrshire KA10, UK",55.5610565,-4.6511179
162,Barbican,"Barbican, London EC2Y, UK",51.5190925,-0.0940787
163,Bardon Mill,"Bardon Mill, Northumberland NE47, UK",54.975089,-2.3428619
164,Bare Lane,"Bare Lane, Morecambe, Lancashire LA4, UK",54.0745503,-2.8353283
165,Bargeddie,"Bargeddie, North Lanarkshire, UK",55.8540587,-4.0784306
166,Bargoed,"Bargoed, Caerphilly, UK",51.684912,-3.229699
167,Barking,"Barking, Greater London, UK",51.536563,0.075766
168,Barkingside,"Barkingside, Ilford, Greater London IG6, UK",51.588711,0.081188
169,Barking (Underground),"Upney Underground Station, Upney Lane, Barking, Greater London IG11 9LS, UK",51.5384059,0.1015318
170,Barlaston,"Barlaston, Staffordshire, UK",52.945556,-2.158722
171,Barming,"Barming, Kent, UK",51.2649041,0.4584923
172,Barmouth,"Barmouth, Gwynedd, UK",52.722873,-4.0560919
173,Barnehurst,"Barnehurst, Bexleyheath, Greater London DA7, UK",51.460893,0.165643
174,Barnes,"Barnes, ND, USA",46.926176,-98.1222338
175,Barnes Bridge,"Barnes Bridge, London SW13, UK",51.4720071,-0.252607
176,Barnetby,"Barnetby le Wold, North Lincolnshire DN38, UK",53.571456,-0.403125
177,Barnham,"Barnham, West Sussex, UK",50.827758,-0.635749
178,Barnhill,"Barnhill, Cheshire West and Chester CH3, UK",53.08396,-2.762932
179,Barnsley,"Barnsley, South Yorkshire, UK",53.55263,-1.479726
180,Barnstaple,"Barnstaple, Devon, UK",51.0781599,-4.058338
181,Barnt Green,"Barnt Green, Worcestershire, UK",52.359707,-1.991617
182,Barons Court,"Barons Court, London W14, UK",51.49031,-0.2134
183,Barrhead,"Barrhead, AB, Canada",54.1230722,-114.4016742
184,Barrhill,"Barrhill, South Ayrshire KA26, UK",55.101337,-4.764535
185,Barrow Haven,"Barrow Haven, North Lincolnshire DN19, UK",53.693394,-0.392823
186,Barrow-In-Furness,"Barrow-in-Furness, Cumbria, UK",54.108967,-3.218894
187,Barrow-Upon-Soar,"Barrow upon Soar, Leicestershire LE12, UK",52.7524019,-1.148755
188,Barry,"Barra, United Kingdom",56.9808838,-7.4567959
189,Barry Docks,"Barry Docks, Barry, Vale of Glamorgan CF63, UK",51.4024389,-3.2607137
190,Barry Island,"Barra, United Kingdom",56.9808838,-7.4567959
191,Barton-On-Humber,"Barton-upon-Humber, North Lincolnshire, UK",53.686675,-0.443368
192,Basildon,"Basildon, Essex, UK",51.576084,0.488736
193,Basingstoke,"Basingstoke, Hampshire, UK",51.262551,-1.093609
194,Bat & Ball,"Bat & Ball, Sevenoaks, Kent TN14, UK",51.2897577,0.1942548
195,Bathgate,"Bathgate, West Lothian, UK",55.9024,-3.643118
196,Bath Spa,"Bath Spa University, Bath, Bath and North East Somerset BA2 9BN, UK",51.3758998,-2.4386609
197,Batley,"Batley, West Yorkshire, UK",53.717028,-1.635083
198,Battersby,"Battersby, North Yorkshire YO21, UK",54.462891,-1.078955
199,Battersea Park,"Battersea Park, London SW11 4NJ, United Kingdom",51.4791075,-0.1564981
200,Battle,"Battle, East Sussex, UK",50.917405,0.483679
201,Battlesbridge,"Battlesbridge, Essex SS11, UK",51.622615,0.571876
202,Bayford,"Bayford, Hertfordshire SG13, UK",51.757722,-0.104772
203,Beaconsfield,"Beaconsfield, Buckinghamshire, UK",51.602396,-0.6442409
204,Bearley,"Bearley, Warwickshire CV37, UK",52.244441,-1.739343
205,Bearsden,"Bearsden, East Dunbartonshire, UK",55.92169,-4.335525
206,Bearsted,"Bearsted, Kent, UK",51.2744349,0.578956
207,Beasdale,"Beasdale, Arisaig, Highland PH39, UK",56.8995321,-5.7637825
208,Beaulieu Road,"Beaulieu Road, New Forest National Park, Brockenhurst, Hampshire SO42, UK",50.8550379,-1.50474
209,Beauly,"Beauly, Highland IV4, UK",57.483411,-4.460351
210,Bebington,"Bebington, Merseyside CH63, UK",53.351175,-3.006884
211,Beccles,"Beccles, Suffolk NR34, UK",52.459333,1.566053
212,Beckenham Hill,"Beckenham Hill, London SE6, UK",51.4245804,-0.0159249
213,Beckenham Junction,"Beckenham Junction, Beckenham, Greater London BR3, UK",51.4111711,-0.0259962
214,Beckenham Junction (Tram),"Beckenham, Greater London, UK",51.40817,-0.025813
215,Beckenham Road,"Beckenham Road, Beckenham, Greater London BR3, UK",51.40953,-0.04339
216,Beckton,"Beckton, London E6, UK",51.51436,0.06148
217,Beckton Park,"Beckton Park, London E6, UK",51.50879,0.05496
218,Becontree,"Becontree, Dagenham, Greater London RM9, UK",51.54033,0.12704
219,Beddington Lane,"Beddington Lane, Croydon, Greater London CR0, UK",51.38924,-0.14214
220,Bedford Midland,"Midland Road, Bedford MK40, UK",52.1359658,-0.4723635
221,Bedford St.Johns,"Bedford St Johns, Bedford MK42, UK",52.1294885,-0.4674792
222,Bedhampton,"Bedhampton, Havant, Hampshire PO9, UK",50.854655,-1.004007
223,Bedworth,"Bedworth, Warwickshire, UK",52.481392,-1.468869
224,Bedwyn,"Great Bedwyn, Wiltshire SN8, UK",51.37982,-1.602843
225,Beeston,"Beeston, Nottinghamshire, UK",52.92392,-1.212394
226,Bekesbourne,"Bekesbourne, Kent CT4, UK",51.258071,1.142522
227,Belgrave Walk,"Belgrave Walk, Mitcham, Greater London CR4, UK",51.40096,-0.17849
228,Belle Vue,"Belle Vue, Bude, Cornwall EX23 8JL, UK",50.8304789,-4.5451651
229,Bellgrove,"Bellgrove, Glasgow, Glasgow City G31, UK",55.8566981,-4.2243599
230,Bellingham,"Bellingham, WA, USA",48.7595529,-122.4882249
231,Bellshill,"Bellshill, North Lanarkshire, UK",55.816761,-4.026536
232,Belmont,"Belmont, CA, USA",37.5202145,-122.2758008
233,Belper,"Belper, Derbyshire DE56, UK",53.0243899,-1.477616
234,Belsize Park,"Belsize Park, London NW3, UK",51.550187,-0.166274
235,Beltring,"Beltring, Kent TN12, UK",51.203232,0.396575
236,Belvedere,"Belvedere, Greater London, UK",51.485165,0.14827
237,Bempton,"Bempton, East Riding of Yorkshire YO15, UK",54.131186,-0.17859
238,Benfleet,"Benfleet SS7, UK",51.5661671,0.5792812
239,Ben Rhydding,"Ben Rhydding, Ilkley, West Yorkshire LS29, UK",53.919118,-1.790682
240,Bentham,"Bentham, North Yorkshire LA2, UK",54.1180014,-2.5090175
241,Bentley,"Bentley, South Yorkshire, UK",53.5476953,-1.1454921
242,Bentley (S. Yorks),"Bentley, South Yorkshire, UK",53.5476953,-1.1454921
243,Bere Alston,"Bere Alston, Devon PL20, UK",50.481561,-4.186218
244,Bere Ferrers,"Bere Ferrers, Devon PL20, UK",50.451308,-4.171239
245,Berkhamsted,"Berkhamsted, Hertfordshire, UK",51.759766,-0.5678569
246,Berkswell,"Berkswell, West Midlands CV7, UK",52.4096959,-1.639577
247,Bermondsey,"Bermondsey, London SE16, UK",51.4985821,-0.0691276
248,Berney Arms,"Berney Arms, Burgh Castle, Norfolk NR30, UK",52.58926,1.6322509
249,Berry Brow,"Berry Brow, Huddersfield, West Yorkshire HD4, UK",53.6249449,-1.792133
250,Berrylands,"Berrylands, Kingston upon Thames, Greater London KT5, UK",51.3990427,-0.2806909
251,Berwick (Sussex),"Berwick (Sussex), Polegate, East Sussex BN26, UK",50.8403713,0.1660452
252,Berwick-Upon-Tweed,"Berwick-upon-Tweed, Northumberland, UK",55.770242,-2.005395
253,Bescar Lane,"Bescar Lane, Scarisbrick, Lancashire L40, UK",53.6238667,-2.9146097
254,Bescot Stadium,"Bescot Stadium, Wednesbury, West Midlands WS1, UK",52.563107,-1.9911
255,Betchworth,"Betchworth, Surrey, UK",51.240523,-0.267364
256,Bethnal Green,"Bethnal Green, London E2, UK",51.5269736,-0.0667204
257,Bethnal Green (Underground),"Bethnal Green, London E2, UK",51.5269736,-0.0667204
258,Betws-y-Coed,"Betws-y-Coed, Conwy LL24, UK",53.089918,-3.80065
259,Beverley,"Beverley, East Riding of Yorkshire HU17, UK",53.841963,-0.435093
260,Bexhill,"Bexhill, East Sussex, UK",50.851292,0.457048
261,Bexley,"Bexley, Greater London, UK",51.439933,0.154327
262,Bexleyheath,"Bexleyheath, Greater London, UK",51.453341,0.13822
263,Bicester North,"Bicester North, Bicester, Oxfordshire OX26, UK",51.903489,-1.1503638
264,Bicester Town,"Bicester, Oxfordshire, UK",51.899603,-1.1535899
265,Bickley,"Bickley, Bromley, Greater London BR1, UK",51.401857,0.052503
266,Bidston,"Bidston, Birkenhead, Merseyside CH43, UK",53.402125,-3.078337
267,Biggleswade,"Biggleswade, Central Bedfordshire, UK",52.086938,-0.26422
268,Bilbrook,"Bilbrook, Staffordshire, UK",52.63519,-2.1515689
269,Billericay,"Billericay, Essex, UK",51.627903,0.418397
270,Billingham,"Billingham, Stockton-on-Tees, UK",54.612537,-1.290961
271,Billingshurst,"Billingshurst, West Sussex RH14, UK",51.022909,-0.451462
272,Bingham,"Bingham, Nottinghamshire NG13, UK",52.951088,-0.956144
273,Bingley,"Bingley, West Yorkshire, UK",53.847389,-1.833781
274,Birchgrove,"Birchgrove NSW 2041, Australia",-33.8530103,151.1814297
275,Birchington-On-Sea,"Birchington, Kent, UK",51.373347,1.306532
276,Birchwood,"Birchwood, Warrington, UK",53.416602,-2.523856
277,Birkbeck,"Birkbeck, Beckenham, Greater London BR3, UK",51.4038889,-0.0557124
278,Birkdale,"Birkdale, North Yorkshire DL11, UK",54.406371,-2.2272429
279,Birkenhead Central,"Birkenhead Central, Birkenhead, Merseyside CH41, UK",53.3883288,-3.0208204
280,Birkenhead Hamilton Square,"Birkenhead Hamilton Square, Birkenhead, Merseyside CH41, UK",53.3947091,-3.0136794
281,Birkenhead North,"Birkenhead North, Birkenhead, Merseyside CH41, UK",53.4044504,-3.0575319
282,Birkenhead Park,"Birkenhead Park, Birkenhead, Merseyside CH41, UK",53.397421,-3.0391
283,Birmingham Bordesley,"Bordesley, Birmingham, West Midlands B9, UK",52.4757763,-1.8751346
284,Birmingham International,"Birmingham International, Birmingham, West Midlands B40, UK",52.4508199,-1.7258496
285,Birmingham Moor Street,"Birmingham Moor Street, Birmingham, West Midlands B4, UK",52.4790921,-1.8924676
286,Birmingham New Street,"Birmingham New Street, Birmingham, West Midlands B5, UK",52.4777938,-1.89836
287,Birmingham Snow Hill,"Birmingham Snow Hill, Birmingham, West Midlands B3, UK",52.4833682,-1.8990834
288,Birmingham Snow Hill (Tram),"Birmingham, West Midlands, UK",52.486243,-1.890401
289,Bishop Auckland,"Bishop Auckland, County Durham, UK",54.663822,-1.678788
290,Bishopbriggs,"Bishopbriggs, East Dunbartonshire, UK",55.904185,-4.228494
291,Bishopstone,"Bishopstone, East Sussex BN25, UK",50.7902284,0.0886266
292,Bishopton,"Bishopton, Renfrewshire PA7, UK",55.908622,-4.50452
293,Bitterne,"Bitterne, Southampton SO18, UK",50.916606,-1.356652
294,Blackburn,"Blackburn, Blackburn with Darwen, UK",53.748575,-2.487529
295,Blackfriars,"London Blackfriars, London EC4V, UK",51.5118096,-0.1033063
296,Blackheath,"Blackheath NSW 2785, Australia",-33.6356669,150.2853372
297,Blackhorse Lane,"Blackhorse Lane, London E17 6HJ, UK",51.5930335,-0.0400656
298,Blackhorse Road,"Blackhorse Road, London E17, UK",51.58692,-0.04112
299,Black Lake,"Black Lake, Tittensor, Staffordshire ST4, UK",52.9531194,-2.2155825
300,Blackpool North,"Blackpool North, Blackpool FY1, UK",53.8219273,-3.0492706
301,Blackpool Pleasure Beach,"Blackpool Pleasure Beach, 525 Ocean Blvd, Blackpool, Lancashire FY4 1EZ, UK",53.79233,-3.0552927
302,Blackpool South,"Blackpool South, Blackpool FY4, UK",53.7987135,-3.0489346
303,Blackridge,"Blackridge, West Lothian EH48, UK",55.885995,-3.774297
304,Blackrod,"Blackrod, UK",53.5873599,-2.57864
305,Blackwall,"Blackwall, Poplar, London E14, UK",51.50799,-0.00694
306,Blackwater,"Blackwater QLD 4717, Australia",-23.5755145,148.8886132
307,Blaenau Ffestiniog,"Blaenau Ffestiniog, Gwynedd LL41, UK",52.998337,-3.944894
308,Blair Atholl,"Blair Atholl, Perth and Kinross PH18, UK",56.768184,-3.843385
309,Blakedown,"Blakedown, Worcestershire, UK",52.403886,-2.179618
310,Blake Street,"Blake Street, Sutton Coldfield, West Midlands B74, UK",52.6048991,-1.8449075
311,Blantyre,"Blantyre, South Lanarkshire, UK",55.793868,-4.09492
312,Blaydon,"Blaydon, Tyne and Wear NE21, UK",54.962993,-1.71867
313,Bleasby,"Bleasby, Nottinghamshire NG14, UK",53.037614,-0.934305
314,Bletchley,"Bletchley, Milton Keynes, UK",52.002175,-0.750137
315,Bloxwich,"Bloxwich, Walsall, West Midlands, UK",52.6150309,-2.0009708
316,Bloxwich North,"Bloxwich North, Walsall, West Midlands WS3, UK",52.6254506,-2.0176784
317,Blundellsands & Crosby,"Blundellsands & Crosby, Waterloo, Merseyside L23, UK",53.4876981,-3.0398575
318,Blythe Bridge,"Blythe Bridge, Staffordshire, UK",52.969189,-2.072085
319,Bodmin Parkway,"Bodmin Parkway, Bodmin, Cornwall PL30, UK",50.4458497,-4.6629673
320,Bodorgan,"Bodorgan, Isle of Anglesey LL62, UK",53.1788254,-4.4166384
321,Bognor Regis,"Bognor Regis, West Sussex, UK",50.782998,-0.673061
322,Bogston,"Bogston, Greenock, Inverclyde PA15, UK",55.9370337,-4.7113813
323,Bolton,"Bolton, UK",53.584441,-2.428619
324,Bolton-On-Dearne,"Bolton upon Dearne, South Yorkshire, UK",53.518834,-1.316327
325,Bond Street,"Bond Street, London W1C, UK",51.51431,-0.1497
326,Bookham,"Great Bookham, Surrey, UK",51.2783826,-0.3733532
327,Bootle (Cumbria),"Bootle, Cumbria LA19, UK",54.281459,-3.371648
328,Bootle New Strand,"New Strand, Stanley Road, Bootle, Merseyside L20 2AB, UK",53.4519631,-2.9919934
329,Bootle Oriel Road,"Bootle Oriel Road, Bootle, Merseyside L20, UK",53.4466354,-2.9957326
330,Borough,"London Borough of Southwark, Greater London, UK",51.4834479,-0.0820877
331,Borough Green & Wrotham,"Borough Green & Wrotham, Borough Green, Kent TN15, UK",51.293216,0.3062724
332,Borth,"Borth, Ceredigion SY24, UK",52.488691,-4.051229
333,Bosham,"Bosham, West Sussex, UK",50.829002,-0.857678
334,Boston,"Boston, Lincolnshire, UK",52.97894,-0.026577
335,Boston Manor,"Manor Lane, Wrangle, Boston, Lincolnshire PE22 9DE, UK",53.0462261,0.1072681
336,Botley,"Botley, Hampshire SO30, UK",50.915254,-1.270672
337,Bottesford,"Bottesford, Leicestershire NG13, UK",52.940232,-0.802883
338,Bounds Green,"Bounds Green, London N11, UK",51.60704,-0.12421
339,Bourne End,"Bourne End, Wooburn Green, Buckinghamshire SL8, UK",51.5765108,-0.7100694
340,Bournemouth,"Bournemouth, UK",50.719164,-1.880769
341,Bournville,"Bournville, Birmingham, West Midlands B30, UK",52.42372,-1.932732
342,Bow Brickhill,"Bow Brickhill, Milton Keynes MK17, UK",52.005118,-0.682991
343,Bow Church,"Bow Church, London E3, UK",51.52786,-0.02091
344,Bowes Park,"Bowes Park, London N11, UK",51.6070129,-0.1205567
345,Bowling,"Bowling, Glasgow, West Dunbartonshire G60, UK",55.9310715,-4.4938257
346,Bow Road,"Bow Road, London E3, UK",51.52694,-0.0251
347,Boxhill & Westhumble,"Boxhill & Westhumble, Dorking, Surrey RH5, UK",51.2540078,-0.3284669
348,Bracknell,"Bracknell, Bracknell Forest, UK",51.41604,-0.75398
349,Bradford Forster Square,"Bradford Forster Square, Bradford, West Yorkshire BD1, UK",53.7969376,-1.752965
350,Bradford Interchange,"Bradford Interchange, Bradford, West Yorkshire BD1, UK",53.7910885,-1.749599
351,Bradford-On-Avon,"Bradford-on-Avon, Wiltshire, UK",51.345178,-2.2525019
352,Brading,"Brading, Isle of Wight, UK",50.679825,-1.1445399
353,Bradley Lane,"Bradley Lane, Stafford, Staffordshire ST18 9DN, UK",52.7695133,-2.1843647
354,Braintree,"Braintree, Essex, UK",51.880087,0.5509269
355,Braintree Freeport,"Braintree Freeport, Braintree, Essex CM77, UK",51.869424,0.5684633
356,Bramhall,"Bramhall, UK",53.367647,-2.164072
357,Bramley (Hampshire),"Bramley, Hampshire, UK",51.3295419,-1.061968
358,Bramley (West Yorkshire),"Bramley, West Yorkshire, UK",53.8124,-1.6285
359,Brampton (Suffolk),"Brampton, Suffolk NR34, UK",52.382748,1.580316
360,Branchton,"Branchton, Greenock, Inverclyde PA16, UK",55.9405881,-4.803528
361,Brandon,"Brandon, Suffolk, UK",52.446542,0.622533
362,Branksome,"Branksome, Poole BH12, UK",50.727052,-1.921498
363,Braystones,"Braystones, Cumbria CA21, UK",54.440601,-3.53257
364,Bredbury,"Bredbury, UK",53.423581,-2.113764
365,Breich,"Breich, West Lothian EH55, UK",55.830791,-3.654511
366,Brent Cross,"Brent Cross, London, UK",51.5763589,-0.2236956
367,Brentford,"Brentford, Greater London, UK",51.486073,-0.3101169
368,Brentwood,"Brentwood, Essex, UK",51.620475,0.3071749
369,Bricket Wood,"Bricket Wood, Hertfordshire AL2, UK",51.705064,-0.362443
370,Bridgend,"Bridgend, UK",51.504286,-3.576945
371,Bridge Of Allan,"Bridge of Allan, Stirling, UK",56.153149,-3.942208
372,Bridge Of Orchy,"Bridge of Orchy, Argyll and Bute PA36, UK",56.514058,-4.766082
373,Bridge Street,"Bridge Street, Suffolk CO10, UK",52.110266,0.7387049
374,Bridgeton,"Bridgeton, NJ, USA",39.427337,-75.2340768
375,Bridgwater,"Bridgwater, Somerset, UK",51.127889,-3.003632
376,Bridlington,"Bridlington, East Riding of Yorkshire, UK",54.08535,-0.198802
377,Brierfield,"Brierfield, Lancashire, UK",53.821604,-2.2367309
378,Brigg,"Brigg, North Lincolnshire DN20, UK",53.55185,-0.491887
379,Brighton,"Brighton, The City of Brighton and Hove, UK",50.82253,-0.137163
380,Brimsdown,"Brimsdown, Enfield, Greater London EN3, UK",51.652766,-0.028045
381,Brinnington,"Brinnington, Stockport SK5, UK",53.430794,-2.131775
382,Bristol Parkway,"Parkway, Stoke Gifford, Bristol, South Gloucestershire BS34 8RG, UK",51.5170174,-2.5314839
383,Bristol Temple Meads,"Bristol Temple Meads, Redcliffe, Bristol, City of Bristol BS1, UK",51.4491405,-2.5813169
384,Brithdir,"Brithdir, Gwynedd LL40, UK",52.754706,-3.826644
385,British Steel Redcar,"Redcar British Steel, Redcar, Redcar and Cleveland TS10, UK",54.6099003,-1.1126757
386,Briton Ferry,"Briton Ferry, Neath Port Talbot, UK",51.632119,-3.824315
387,Brixton,"Brixton, London Borough of Lambeth, London SW2, UK",51.4588318,-0.10972
388,Brixton (Underground),"Brixton, London Borough of Lambeth, London SW2, UK",51.4588318,-0.10972
389,Broad Green,"Broad Green, Liverpool, Merseyside L14, UK",53.4065176,-2.8934836
390,Broadstairs,"Broadstairs, Kent, UK",51.360163,1.432038
391,Brockenhurst,"Brockenhurst, Hampshire, UK",50.818863,-1.575726
392,Brockholes,"Brockholes, West Yorkshire HD9, UK",53.595447,-1.771484
393,Brockley,"Brockley, London SE4, UK",51.4636064,-0.0360918
394,Brockley Whins,"Brockley Whins, Jarrow, Tyne and Wear NE35, UK",54.9595503,-1.4613665
395,Brockley Whins,"Brockley Whins, Jarrow, Tyne and Wear NE35, UK",54.9595503,-1.4613665
396,Brockley Whins (Metro),"Brockley Whins, Jarrow, Tyne and Wear NE35, UK",54.9595503,-1.4613665
397,Bromborough,"Bromborough, Birkenhead, Merseyside CH62, UK",53.334817,-2.977993
398,Bromborough Rake,"Bromborough Rake, Birkenhead, Merseyside CH62, UK",53.3299209,-2.9894687
399,Bromley By Bow,"Bromley By Bow, London E3, UK",51.522444,-0.008645
400,Bromley Cross,"Bromley Cross, UK",53.6171369,-2.4231836
401,Bromley North,"Bromley North, Bromley, Greater London BR1, UK",51.4083256,0.0170186
402,Bromley South,"Bromley South, Bromley, Greater London BR1, UK",51.3999742,0.0173698
403,Bromsgrove,"Bromsgrove, Worcestershire, UK",52.335589,-2.061906
404,Brondesbury,"Brondesbury, London NW6, UK",51.5451662,-0.2022837
405,Brondesbury Park,"Brondesbury Park, London NW6, UK",51.5407552,-0.2102101
406,Brookman's Park,"Brookmans Park, Hertfordshire, UK",51.71817,-0.199498
407,Brookwood,"Brookwood, Surrey, UK",51.305319,-0.639228
408,Broome,"Broome WA 6725, Australia",-17.9512214,122.2443272
409,Broomfleet,"Broomfleet, East Riding of Yorkshire HU15, UK",53.732222,-0.667255
410,Brora,"Brora, Highland, UK",58.012157,-3.852548
411,Brough,"Brough, East Riding of Yorkshire HU15, UK",53.729988,-0.573215
412,Broughty Ferry,"Broughty Ferry, Dundee City, UK",56.4742525,-2.8665281
413,Broxbourne,"Broxbourne, Hertfordshire, UK",51.743473,-0.021151
414,Bruce Grove,"Bruce Grove, London N17, UK",51.5939593,-0.0698419
415,Brundall,"Brundall, Norfolk, UK",52.624025,1.436542
416,Brundall Gardens,"Brundall Gardens, Norwich, Norfolk NR13, UK",52.6234668,1.4184397
417,Brunstane,"Brunstane, Edinburgh, City of Edinburgh EH15, UK",55.9425046,-3.1009896
418,Brunswick,"Brunswick VIC 3056, Australia",-37.767872,144.961929
419,Bruton,"Bruton, Somerset, UK",51.113338,-2.452895
420,Bryn,"Bryn, Ashton-in-Makerfield WN4, UK",53.501327,-2.651387
421,Buchanan Street,"Buchanan Street, Glasgow, Glasgow City G1, UK",55.8611643,-4.2538586
422,Buckenham,"Buckenham, Norfolk NR13, UK",52.600822,1.480106
423,Buckhurst Hill,"Buckhurst Hill, Essex, UK",51.627572,0.034513
424,Buckley,"Buckley, Flintshire, UK",53.17005,-3.0814879
425,Bucknell,"Bucknell, Shropshire SY7, UK",52.359723,-2.949593
426,Buckshaw Parkway,"Buckshaw Parkway, Euxton, Lancashire PR7, UK",53.6728414,-2.6644665
427,Bugle,"Bugle, Cornwall PL26, UK",50.396493,-4.79517
428,Builth Road,"Builth Road, Builth Wells, Powys LD2, UK",52.1693301,-3.4270407
429,Bulwell,"Bulwell, Nottingham NG6, UK",53.002511,-1.201322
430,Bures,"Bures, Suffolk CO8, UK",51.973881,0.777277
431,Burgess Hill,"Burgess Hill, West Sussex, UK",50.954469,-0.128701
432,Burley-In-Wharfedale,"Burley in Wharfedale, West Yorkshire, UK",53.913176,-1.748235
433,Burley Park,"Burley Park, Burley, Leeds, West Yorkshire LS4, UK",53.8120446,-1.5777713
434,Burnage,"Burnage, Manchester M19, UK",53.42816,-2.202588
435,Burneside,"Burneside, Cumbria, UK",54.35559,-2.762856
436,Burnham,"Burnham-on-Sea, Somerset, UK",51.240139,-2.993858
437,Burnham-On-Crouch,"Burnham-on-Crouch, Essex, UK",51.628347,0.814539
438,Burnley Barracks,"Burnley Barracks, Burnley, Lancashire BB12, UK",53.7908907,-2.2580862
439,Burnley Central,"Burnley Central, Burnley, Lancashire BB11, UK",53.7935247,-2.2449717
440,Burnley Manchester Road,"Burnley Manchester Road, Burnley, Lancashire BB11, UK",53.7849781,-2.2488676
441,Burnside,"Burnside, Newtownabbey BT39, UK",54.76169,-6.04937
442,Burntisland,"Burntisland, Fife, UK",56.058809,-3.233915
443,Burnt Oak,"Burnt Oak, Edgware, Greater London HA8, UK",51.605694,-0.261644
444,Burscough Bridge,"Burscough Bridge, Burscough, Lancashire L40, UK",53.6052706,-2.840879
445,Burscough Junction,"Burscough Junction, Burscough, Lancashire L40, UK",53.5975335,-2.8406043
446,Bursledon,"Bursledon, Hampshire SO31, UK",50.884634,-1.311695
447,Burton Joyce,"Burton Joyce, Nottinghamshire, UK",52.986554,-1.037903
448,Burton-On-Trent,"Burton upon Trent, Staffordshire, UK",52.8140281,-1.6371359
449,Busby,"Busby, Clarkston, East Renfrewshire G76, UK",55.7802726,-4.2770779
450,Bushey,"Bushey, Hertfordshire, UK",51.647615,-0.35842
451,Bush Hill Park,"Bush Hill Park, Enfield, Greater London EN1, UK",51.644861,-0.072226
452,Butlers Lane,"Butlers Lane, Sutton Coldfield, West Midlands B74, UK",52.5924839,-1.8380131
453,Buxted,"Buxted, East Sussex TN22, UK",50.989429,0.132351
454,Buxton,"Buxton, Derbyshire SK17, UK",53.259082,-1.91483
455,Byfleet & New Haw,"Byfleet & New Haw, Addlestone, Surrey KT15, UK",51.3497934,-0.4813697
456,Bynea,"Bynea, Carmarthenshire SA14, UK",51.6744541,-4.0944819
457,Cadoxton,"Cadoxton, Neath Port Talbot SA10, UK",51.673094,-3.799281
458,Caergwrle,"Caergwrle, Flintshire LL12, UK",53.110854,-3.042487
459,Caerphilly,"Caerphilly, UK",51.578829,-3.218134
460,Caersws,"Caersws, Powys SY17, UK",52.5163888,-3.4287484
461,Caldercruix,"Caldercruix, North Lanarkshire ML6, UK",55.888936,-3.889985
462,Caldicot,"Caldicot, Monmouthshire NP26, UK",51.591518,-2.750868
463,Caledonian Road,"Caledonian Road, London, UK",51.5434163,-0.1174761
464,Caledonian Road & Barnsbury,"Caledonian Rd & Barnsbury, London N1, UK",51.5430414,-0.1167031
465,Calstock,"Calstock, Cornwall, UK",50.497003,-4.202055
466,Camberley,"Camberley, Surrey, UK",51.3353899,-0.742856
467,Camborne,"Camborne, Cornwall, UK",50.21277,-5.2947749
468,Cambridge,"Cambridge, UK",52.205337,0.121817
469,Cambridge Heath,"Cambridge Heath, London E2, UK",51.5319722,-0.0572519
470,Cambuslang,"Cambuslang, South Lanarkshire, UK",55.820982,-4.164891
471,Camden Road,"Camden Road, London NW1, UK",51.5418829,-0.1392201
472,Camden Town,"Camden Town, London NW1, UK",51.5390111,-0.1425553
473,Cam & Dursley,"Cam & Dursley, Dursley, Gloucestershire GL11, UK",51.7176209,-2.3590815
474,Camelon,"Camelon, Falkirk, UK",56.005278,-3.828352
475,Canada Water,"Canada Water, London SE16, UK",51.4979894,-0.0496934
476,Canley,"Canley, Coventry, West Midlands CV4, UK",52.387505,-1.5469
477,Canning Town,"Canning, Buenos Aires Province, Argentina",-34.8844956,-58.5127172
478,Canning Town (DLR),"Canning, Buenos Aires Province, Argentina",-34.8844956,-58.5127172
479,Canning Town (Underground),"Canning, Buenos Aires Province, Argentina",-34.8844956,-58.5127172
480,Cannock,"Cannock, Staffordshire, UK",52.6999408,-2.0218293
481,Cannon Street,"Cannon Street, London EC4N, UK",51.5116973,-0.0907736
482,Cannon Street (Underground),"Mansion House Underground Station, Cannon Street, London EC4N 6JD, UK",51.5120916,-0.0941976
483,Canonbury,"Canonbury, London N1, UK",51.543465,-0.094442
484,Canons Park,"Canons Park, Stanmore, Greater London HA8, UK",51.608215,-0.292154
485,Canterbury East,"Canterbury, Kent, UK",51.280233,1.0789089
486,Canterbury West,"Canterbury, Kent, UK",51.280233,1.0789089
487,Cantley,"Cantley, QC, Canada",45.5661759,-75.782459
488,Capenhurst,"Capenhurst, Cheshire West and Chester CH1, UK",53.258853,-2.950599
489,Carbis Bay,"Carbis Bay, Cornwall TR26, UK",50.193619,-5.465142
490,Cardenden,"Cardenden, Fife KY5, UK",56.145247,-3.2558919
491,Cardiff Bay,"Cardiff Bay, United Kingdom",51.453877,-3.1693551
492,Cardiff Central,"Cardiff Central, Cardiff CF10, UK",51.4760242,-3.1793103
493,Cardonald,"Cardonald, Glasgow, Glasgow City G52, UK",55.847604,-4.357405
494,Cardross,"Cardross, Argyll and Bute, UK",55.963506,-4.655255
495,Carfin,"Carfin, North Lanarkshire ML1, UK",55.8039736,-3.961203
496,Cark & Cartmel,"Cark & Cartmel, Flookburgh, Cumbria LA11, UK",54.1779629,-2.9740634
497,Carlisle,"Carlisle, Cumbria, UK",54.892473,-2.932931
498,Carlton,"Carlton, Nottinghamshire, UK",52.966631,-1.083383
499,Carluke,"Carluke, South Lanarkshire ML8, UK",55.735435,-3.836552
500,Carmarthen,"Carmarthen, UK",51.85762,-4.312131
501,Carmyle,"Carmyle, Glasgow, Glasgow City G32, UK",55.831511,-4.15634
502,Carnforth,"Carnforth, Lancashire, UK",54.127363,-2.768112
503,Carntyne,"Carntyne, Glasgow, Glasgow City G32, UK",55.860841,-4.197978
504,Carpenders Park,"Carpenders park, Watford, Hertfordshire WD19, UK",51.6278779,-0.3855836
505,Carrbridge,"Carrbridge, Highland PH23, UK",57.284541,-3.808707
506,Carshalton,"Carshalton, Greater London, UK",51.365018,-0.164921
507,Carshalton Beeches,"Carshalton Beeches, Carshalton, Greater London SM5, UK",51.348874,-0.174087
508,Carstairs,"Carstairs, South Lanarkshire ML11, UK",55.696915,-3.69047
509,Cartsdyke,"Cartsdyke, Greenock, Inverclyde PA15, UK",55.9422052,-4.7315709
510,Castle Bar Park,"Castle Bar Park, London W7, UK",51.5229297,-0.3315264
511,Castle Cary,"Castle Cary, Somerset, UK",51.088689,-2.5131009
512,Castleford,"Castleford, West Yorkshire, UK",53.723466,-1.345968
513,Castleton,"Castleton, Derbyshire S33, UK",53.344,-1.775
514,Castleton Moor,"Castleton Moor, North York Moors National Park, Whitby, North Yorkshire YO21, UK",54.4672901,-0.9466612
515,Caterham,"Caterham, Surrey, UK",51.280296,-0.0816159
516,Catford,"Catford, London SE6, UK",51.4446414,-0.0201064
517,Catford Bridge,"Catford Bridge, London SE6, UK",51.4447387,-0.0247653
518,Cathays,"Cathays, Cardiff CF24, UK",51.494501,-3.178275
519,Cathcart,"Cathcart, Glasgow, Glasgow City G44, UK",55.815435,-4.253987
520,Cattal,"Cattal, North Yorkshire YO26, UK",53.982014,-1.316135
521,Causeland,"Causeland, Liskeard, Cornwall PL14, UK",50.4056755,-4.4664834
522,Cefn-Y-Bedd,"Cefn-y-bedd, Flintshire LL12, UK",53.100248,-3.033292
523,Cessnock,"Cessnock NSW 2325, Australia",-32.8345782,151.3564619
524,Chadwell Heath,"Chadwell Heath, Dagenham, Greater London RM6, UK",51.571494,0.137373
525,Chafford Hundred,"Chafford Hundred, Thurrock, UK",51.489548,0.3108
526,Chalfont And Latimer,"Latimer, Buckinghamshire HP5, UK",51.680907,-0.54926
527,Chalfont & Latimer,"Chalfont & Latimer, Little Chalfont, Buckinghamshire HP6, UK",51.6681108,-0.5605041
528,Chalk Farm,"Chalk Farm, London NW3, UK",51.54412,-0.15336
529,Chalkwell,"Chalkwell, Westcliff-on-Sea, Southend-on-Sea SS0, UK",51.5387211,0.6706214
530,Chancery Lane,"Chancery Lane, London, UK",51.5161088,-0.1119818
531,Chandlers Ford,"Chandler's Ford, Hampshire, UK",50.983953,-1.379259
532,Chapel-En-Le-Frith,"Chapel-en-le-Frith, Derbyshire SK23, UK",53.325695,-1.909472
533,Chapelton,"Chapelton, South Lanarkshire ML10, UK",55.712146,-4.096832
534,Chapeltown,"Chapeltown, South Yorkshire, UK",53.459821,-1.4658469
535,Chappel & Wakes Colne,"Chappel & Wakes Colne, Colchester, Essex CO6, UK",51.9259157,0.7585307
536,Charing,"Charing, Kent, UK",51.211095,0.794606
537,Charing Cross,"Charing Cross, London SW1A, UK",51.5073,-0.12755
538,Charing Cross (Glasgow),"Charing Cross (Glasgow), Glasgow, Glasgow City G2, UK",55.8646753,-4.2698054
539,Charing Cross (Underground),"Charing Cross Underground Shopping, London WC2N 4HZ, UK",51.5091149,-0.1254347
540,Charlbury,"Charlbury, Oxfordshire, UK",51.8745,-1.479752
541,Charlton,"Charlton VIC 3525, Australia",-36.2692924,143.3510041
542,Chartham,"Chartham, Kent CT4, UK",51.254943,1.020534
543,Chassen Road,"Chassen Road, Urmston M41, UK",53.4461737,-2.368232
544,Chatelherault,"Chatelherault, Hamilton, South Lanarkshire ML3, UK",55.765214,-4.0046652
545,Chatham,"Chatham, Medway, UK",51.380952,0.52213
546,Chathill,"Chathill, Northumberland NE67, UK",55.533635,-1.707851
547,Cheadle Hulme,"Cheadle Hulme, UK",53.380149,-2.193189
548,Cheddington,"Cheddington, Buckinghamshire, UK",51.8478747,-0.6643975
549,Chelford,"Chelford, Cheshire East, UK",53.2706609,-2.2810579
550,Chelmsford,"Chelmsford, Essex, UK",51.7355868,0.4685497
551,Chelsfield,"Chelsfield, Greater London BR6, UK",51.358097,0.1278169
552,Cheltenham Spa,"Cheltenham Spa, Cheltenham, Gloucestershire GL51, UK",51.8974029,-2.0996133
553,Chepstow,"Chepstow, Monmouthshire NP16, UK",51.641856,-2.673804
554,Cherry Tree,"Cherry Tree, Blackburn, Blackburn with Darwen BB2, UK",53.731021,-2.52689
555,Chertsey,"Chertsey, Surrey, UK",51.386491,-0.509456
556,Chesham,"Chesham, Buckinghamshire HP5, UK",51.709401,-0.612333
557,Cheshunt,"Cheshunt, Hertfordshire, UK",51.699888,-0.028486
558,Chessington North,"Chessington North, Chessington, Greater London KT9, UK",51.3640377,-0.3006756
559,Chessington South,"Chessington South, Chessington, Greater London KT9, UK",51.3565468,-0.3081338
560,Chester,"Chester, Cheshire West and Chester, UK",53.193392,-2.893075
561,Chesterfield,"Chesterfield, Derbyshire, UK",53.235048,-1.421629
562,Chester-Le-Street,"Chester-le-Street, County Durham DH3, UK",54.859463,-1.570672
563,Chester Road,"Chester Road, Sutton Coldfield, West Midlands B73, UK",52.5356593,-1.832472
564,Chestfield & Swalecliffe,"Chestfield & Swalecliffe, Whitstable, Kent CT5, UK",51.3602435,1.0669612
565,Chetnole,"Chetnole, Dorset DT9, UK",50.873036,-2.567718
566,Chichester,"Chichester, West Sussex, UK",50.83761,-0.774936
567,Chigwell,"Chigwell, Essex, UK",51.626281,0.080647
568,Chilham,"Chilham, Kent CT4, UK",51.24363,0.967426
569,Chilworth,"Chilworth, Surrey, UK",51.214386,-0.533594
570,Chingford,"Chingford, London E4, UK",51.6311279,0.001313
571,Chinley,"Chinley, Derbyshire SK23, UK",53.3382689,-1.939154
572,Chippenham,"Chippenham, Wiltshire, UK",51.458058,-2.1160739
573,Chipstead,"Chipstead, Surrey, UK",51.315365,-0.164942
574,Chirk,"Chirk, Wrexham LL14, UK",52.9322792,-3.0567818
575,Chislehurst,"Chislehurst, Greater London, UK",51.412626,0.077487
576,Chiswick,"Chiswick, London W4, UK",51.4924186,-0.2609205
577,Chiswick Park,"Chiswick Park, London W4, UK",51.49463,-0.26795
578,Cholsey,"Cholsey, Oxfordshire OX10, UK",51.5759029,-1.154471
579,Chorley,"Chorley, Lancashire, UK",53.653511,-2.632596
580,Chorleywood,"Chorleywood, Hertfordshire, UK",51.655632,-0.5161829
581,Christchurch,"Christchurch, Dorset, UK",50.735777,-1.778586
582,Christ's Hospital,"Christs Hospital, West Sussex RH13, UK",51.0461792,-0.3623769
583,Church Fenton,"Church Fenton, North Yorkshire LS24, UK",53.825096,-1.221017
584,Church & Oswaldtwistle,"Church & Oswaldtwistle, Church, Lancashire BB5, UK",53.750534,-2.3912112
585,Church Street,"Church Street, Warsop, Nottinghamshire NG20 0AR, UK",53.2060842,-1.1530174
586,Church Stretton,"Church Stretton, Shropshire SY6, UK",52.540698,-2.803484
587,Cilmeri,"Cilmeri, Builth Wells, Powys LD2, UK",52.1505373,-3.4565494
588,City Thameslink,"City Thameslink, London EC4M, UK",51.5139361,-0.1035638
589,Clacton,"Clacton-on-Sea, Essex, UK",51.789534,1.153035
590,Clandon,"Clandon, West Clandon, Surrey GU4, UK",51.2640009,-0.5027438
591,Clapham Common,"Clapham Common, London SW4, UK",51.46174,-0.13829
592,Clapham High Street,"High Street, Clapham, Bedford MK41, UK",52.161188,-0.4967922
593,Clapham Junction,"Clapham Junction, London SW11, UK",51.4649566,-0.1705241
594,Clapham North,"Clapham, London SW4, UK",51.46231,-0.13857
595,Clapham (North Yorkshire),"Clapham, North Yorkshire LA2, UK",54.117739,-2.392541
596,Clapham South,"Clapham South, London SW12, UK",51.45265,-0.14756
597,Clapton,"Clapton, Somerset BA3, UK",51.280991,-2.514863
598,Clarbeston Road,"Clarbeston Road, Pembrokeshire SA63, UK",51.8516765,-4.8835778
599,Clarkston,"Clarkston, East Renfrewshire, UK",55.784536,-4.275812
600,Claverdon,"Claverdon, Warwickshire CV35, UK",52.283292,-1.717844
601,Claygate,"Claygate, Surrey, UK",51.360219,-0.340969
602,Cleethorpes,"Cleethorpes, North East Lincolnshire, UK",53.557378,-0.029435
603,Cleland,"Cleland, North Lanarkshire, UK",55.802886,-3.921275
604,Clifton,"Clifton, NJ, USA",40.8584328,-74.1637553
605,Clifton Down,"Clifton Down, Clifton, Bristol, City of Bristol BS8, UK",51.4645415,-2.6117432
606,Clitheroe,"Clitheroe, Lancashire BB7, UK",53.871098,-2.393083
607,Clock House,"Clock House, Beckenham, Greater London BR3, UK",51.4085838,-0.0406307
608,Clunderwen,"Clynderwen, Pembrokeshire SA66, UK",51.841588,-4.729586
609,Clydebank,"Clydebank, West Dunbartonshire, UK",55.900099,-4.404774
610,Coatbridge Central,"Coatbridge Central, Coatbridge, North Lanarkshire ML5, UK",55.8631654,-4.0323999
611,Coatdyke,"Coatdyke, Coatbridge, North Lanarkshire ML5, UK",55.8643347,-4.0049735
612,Cobham & Stoke D'abernon,"Cobham & Stoke D'Abernon, Stoke D'Abernon, Surrey KT11, UK",51.3180974,-0.3893233
613,Cockfosters,"Cockfosters, Barnet, Greater London EN4, UK",51.647851,-0.151255
614,Codsall,"Codsall, Staffordshire, UK",52.628089,-2.192079
615,Cogan,"Cogan, Penarth, Vale of Glamorgan CF64, UK",51.444097,-3.185902
616,Colchester,"Colchester, Essex, UK",51.895927,0.891874
617,Colchester Town,"Colchester, Essex, UK",51.895927,0.891874
618,Coleshill Parkway,"Coleshill Parkway, Coleshill, Warwickshire B46, UK",52.5165406,-1.7081694
619,Colindale,"Colindale, London NW9, UK",51.590158,-0.25177
620,Colliers Wood,"Collier's Wood, London SW19, UK",51.41717,-0.179942
621,Collingham,"Collingham, West Yorkshire, UK",53.908313,-1.4098869
622,Collington,"Collington, Herefordshire HR7, UK",52.237893,-2.5119349
623,Colne,"Colne, Lancashire, UK",53.85564,-2.176991
624,Colwall,"Colwall, Herefordshire WR13, UK",52.078884,-2.381531
625,Colwyn Bay,"Colwyn Bay, Conwy, UK",53.293182,-3.72764
626,Combe,"Combe, 37600 Verneuil-sur-Indre, France",47.0716634,1.0735044
627,Commondale,"Commondale, North Yorkshire YO21, UK",54.487235,-0.981619
628,Congleton,"Congleton, Cheshire East CW12, UK",53.162856,-2.218923
629,Conisbrough,"Conisbrough, South Yorkshire DN12, UK",53.4805944,-1.2263372
630,Connel Ferry,"Connel Ferry, Oban, Argyll and Bute PA37, UK",56.4523373,-5.38542
631,Cononley,"Cononley, North Yorkshire BD20, UK",53.919575,-2.018779
632,Conway Park,"Conway Park, Birkenhead, Merseyside CH41, UK",53.3933739,-3.0226704
633,Conwy,"Conwy, UK",53.282872,-3.82948
634,Cooden Beach,"Cooden Beach, Bexhill, East Sussex TN39, UK",50.833366,0.4268885
635,Cookham,"Cookham, Windsor and Maidenhead, UK",51.558437,-0.707741
636,Cooksbridge,"Cooksbridge, South Downs National Park, Lewes, East Sussex BN8, UK",50.9037496,-0.0091753
637,Coombe,"Coombe, Cornwall PL26, UK",50.332032,-4.879558
638,Coombe Lane,"Coombe Lane, London SW20 0QT, UK",51.411587,-0.2405762
639,Copplestone,"Copplestone, Devon EX17, UK",50.809558,-3.745186
640,Corbridge,"Corbridge, Northumberland, UK",54.974046,-2.017505
641,Corby,"Corby, Northamptonshire, UK",52.4922983,-0.6842333
642,Corkerhill Glasgow,"Corkerhill, Glasgow, Glasgow City G52, UK",55.8374944,-4.3342779
643,Corkickle,"Corkickle, Whitehaven, Cumbria CA28, UK",54.5416855,-3.5821648
644,Corpach,"Corpach, Highland PH33, UK",56.844065,-5.128667
645,Corrour,"Corrour, Highland PH30, UK",56.760196,-4.6905897
646,Coryton,"Coryton, Radyr, Cardiff CF14, UK",51.525244,-3.239561
647,Coseley,"Coseley, Bilston, West Midlands WV14, UK",52.547913,-2.074356
648,Cosford,"Cosford, Shropshire WV7, UK",52.6463589,-2.297577
649,Cosham,"Cosham, Portsmouth, UK",50.846625,-1.0694459
650,Cottingley,"Cottingley, Bingley, West Yorkshire BD16, UK",53.830186,-1.820804
651,Coulsdon South,"Coulsdon South, Coulsdon, Greater London CR5, UK",51.3158346,-0.1378614
652,Covent Garden,"Covent Garden, London, UK",51.5115115,-0.1227491
653,Coventry,"Coventry, West Midlands, UK",52.406822,-1.519693
654,Cowcaddens,"Cowcaddens Road, Glasgow, Glasgow City G4, UK",55.8667505,-4.2542717
655,Cowden,"Cowden, Kent TN8, UK",51.145962,0.094969
656,Cowdenbeath,"Cowdenbeath, Fife KY4, UK",56.114407,-3.341848
657,Cradley Heath,"Cradley Heath, West Midlands, UK",52.471815,-2.082075
658,Craigendoran,"Craigendoran, Helensburgh, Argyll and Bute G84, UK",55.9947876,-4.7112247
659,Cramlington,"Cramlington, Northumberland NE23, UK",55.086136,-1.5808
660,Craven Arms,"Craven Arms, Shropshire SY7, UK",52.440084,-2.8332799
661,Crawley,"Crawley, West Sussex, UK",51.1091401,-0.1872275
662,Crayford,"Crayford, Dartford, Greater London DA1, UK",51.453003,0.179097
663,Crediton,"Crediton, Devon EX17, UK",50.792592,-3.651495
664,Cressing,"Cressing, Essex, UK",51.85672,0.605984
665,Cressington,"Cressington, Liverpool, Merseyside L19, UK",53.3606237,-2.9175973
666,Creswell (Derbys),"Creswell, Derbyshire S80, UK",53.265246,-1.212215
667,Crewe,"Crewe, Cheshire East, UK",53.100405,-2.4438209
668,Crewkerne,"Crewkerne, Somerset, UK",50.8830079,-2.795877
669,Crews Hill,"Crews Hill, Enfield, Greater London EN2, UK",51.684487,-0.1068613
670,Crianlarich,"Crianlarich, Stirling FK20, UK",56.393475,-4.618572
671,Criccieth,"Criccieth, Gwynedd, UK",52.919565,-4.233645
672,Cricklewood,"Cricklewood, London NW2, UK",51.555684,-0.21396
673,Croftfoot,"Croftfoot, Glasgow, Glasgow City G44, UK",55.812712,-4.248278
674,Cromer,"Cromer, Norfolk, UK",52.931448,1.301866
675,Cromford,"Cromford, Derbyshire DE4, UK",53.1074434,-1.5626182
676,Crookston Glasgow,"Crookston, Glasgow, Glasgow City G52, UK",55.84358,-4.363854
677,Crossflatts,"Crossflatts, Bingley, West Yorkshire BD16, UK",53.857339,-1.845835
678,Cross Gates,"Crossgates, Fife KY4, UK",56.082953,-3.374334
679,Crossharbour,"Crossharbour, Isle of Dogs, London E14, UK",51.49573,-0.01458
680,Crosshill,"Crosshill, Glasgow, Glasgow City G41, UK",55.839475,-4.270963
681,Crosskeys,"Crosskeys, Caerphilly NP11, UK",51.62059,-3.126091
682,Crossmyloof,"Crossmyloof, Glasgow, Glasgow City G41, UK",55.8337837,-4.2835735
683,Croston,"Croston, Lancashire PR26, UK",53.662525,-2.777085
684,Crouch Hill,"Crouch Hill, Dorset DT9, UK",50.89352,-2.424245
685,Crowborough,"Crowborough, East Sussex, UK",51.060853,0.165894
686,Crowhurst,"Crowhurst, East Sussex TN33, UK",50.882397,0.49918
687,Crowle,"Crowle, North Lincolnshire, UK",53.611325,-0.832159
688,Crowthorne,"Crowthorne, Bracknell Forest, UK",51.366901,-0.795353
689,Croxley,"Croxley, Croxley Green, Hertfordshire WD3, UK",51.64705,-0.4417
690,Croy,"Croy, Highland IV2, UK",57.520733,-4.008621
691,Crystal Palace,"Crystal Palace, London SE19, UK",51.4198825,-0.0785415
692,Cuddington,"Cuddington, Buckinghamshire HP18, UK",51.792527,-0.927347
693,Cuffley,"Cuffley, Hertfordshire, UK",51.705037,-0.11246
694,Culham,"Culham, Oxfordshire OX14, UK",51.65133,-1.269947
695,Culrain,"Culrain, Highland IV24, UK",57.918107,-4.410573
696,Cumbernauld,"Cumbernauld, North Lanarkshire, UK",55.945668,-3.992534
697,Cupar,"Cupar, Fife KY15, UK",56.320235,-3.010137
698,Curriehill,"Curriehill, Currie, City of Edinburgh EH14, UK",55.9005594,-3.3187495
699,Custom House,"Custom House, London E16, UK",51.50972,0.02673
700,Cutty Sark,"Cutty Sark, King William Walk, London SE10 9HT",51.4828646,-0.0095917
701,Cuxton,"Cuxton, Medway, UK",51.372939,0.452624
702,Cwmbach,"Cwmbach, Rhondda Cynon Taff CF44, UK",51.707264,-3.413778
703,Cwmbran,"Cwmbran, Torfaen NP44, UK",51.654066,-3.027569
704,Cynghordy,"Cynghordy, Llandovery, Carmarthenshire SA20, UK",52.0515056,-3.7482226
705,Cyprus,Cyprus,35.126413,33.429859
706,Dagenham Dock,"Dagenham Dock, Dagenham, Greater London RM9, UK",51.5260888,0.146131
707,Dagenham East,"Dagenham East, Dagenham, Greater London RM10, UK",51.54409,0.16604
708,Dagenham Heathway,"Dagenham Heathway, Dagenham, Greater London RM9, UK",51.54164,0.14755
709,Daisy Hill,"Daisy Hill QLD 4127, Australia",-27.6410099,153.1540102
710,Dalgety Bay,"Dalgety Bay, Fife, UK",56.034908,-3.35056
711,Dalmally,"Dalmally, Argyll and Bute PA33, UK",56.40234,-4.972179
712,Dalmarnock,"Dalmarnock, Glasgow, Glasgow City G40, UK",55.8420793,-4.2176946
713,Dalmeny,"Dalmeny, City of Edinburgh EH30, UK",55.982062,-3.373653
714,Dalmuir,"Dalmuir, Clydebank, West Dunbartonshire G81, UK",55.913124,-4.424197
715,Dalreoch,"Dalreoch, Dumbarton, West Dunbartonshire G82, UK",55.947407,-4.5778453
716,Dalry,"Dalry, North Ayrshire KA24, UK",55.711116,-4.723153
717,Dalston,"Dalston, London E8, UK",51.54139,-0.06916
718,Dalston Junction,"Dalston Junction, London E8, UK",51.5461155,-0.0751107
719,Dalston (Kingsland),"Dalston Kingsland, London E8, UK",51.5482299,-0.0758596
720,Dalton,"Dalton, North Yorkshire YO7, UK",54.18049,-1.3389549
721,Dalwhinnie,"Dalwhinnie, Highland PH19, UK",56.936604,-4.242783
722,Danby,"Danby, North Yorkshire YO21, UK",54.469378,-0.911226
723,Danescourt,"Danescourt, Cardiff, UK",51.503873,-3.24193
724,Danzey,"Danzey, Solihull, Warwickshire B94, UK",52.324826,-1.8208684
725,Darlington,"Darlington, UK",54.52361,-1.559458
726,Darnall,"Darnall, Sheffield, South Yorkshire S9, UK",53.392549,-1.408669
727,Dartford,"Dartford, Kent, UK",51.44621,0.216872
728,Dartmouth Street,"Dartmouth Street, West Bromwich, West Midlands B70, UK",52.5203365,-2.0037666
729,Darton,"Darton, South Yorkshire, UK",53.586869,-1.525187
730,Darwen,"Darwen, Blackburn with Darwen, UK",53.695451,-2.46874
731,Datchet,"Datchet, Windsor and Maidenhead SL3, UK",51.483562,-0.5737679
732,Davenport,"Davenport, IA, USA",41.5236437,-90.5776367
733,Dawlish,"Dawlish, Devon, UK",50.582285,-3.464402
734,Dawlish Warren,"Dawlish Warren, Devon EX7, UK",50.5989974,-3.4498885
735,Deal,"Deal, Kent, UK",51.222491,1.401661
736,Dean,"De'an, Jiujiang, Jiangxi, China",29.314348,115.756883
737,Dean Lane,"Dean's Lane, Edgware, Greater London HA8 9NT, UK",51.6139758,-0.2645236
738,Deansgate,"Deansgate, Manchester, UK",53.479837,-2.2486509
739,Debden,"Debden, Essex CB11, UK",51.977034,0.266656
740,Deepdene,"Deepdene VIC 3103, Australia",-37.8128049,145.0680116
741,Deganwy,"Deganwy, Conwy, UK",53.296366,-3.834996
742,Deighton,"Deighton, York YO19, UK",53.891197,-1.046672
743,Delamere,"Delamere, Cheshire West and Chester CW8, UK",53.217443,-2.65682
744,Denby Dale,"Denby Dale, West Yorkshire HD8, UK",53.574585,-1.6529609
745,Denham,"Denham, Buckinghamshire, UK",51.569583,-0.493857
746,Denham Golf Club,"Denham Golf Club, Denham, Buckinghamshire UB9, UK",51.5805982,-0.5177662
747,Denmark Hill,"Denmark Hill, London SE5 8RS, UK",51.4673503,-0.0909681
748,Dent,"Dent, Cumbria, UK",54.2776439,-2.4551085
749,Denton,"Denton, TX, USA",33.2148412,-97.1330683
750,Deptford,"Deptford, London SE8, UK",51.4815584,-0.0264139
751,Deptford Bridge,"Deptford Bridge, London SE8, UK",51.47421,-0.02241
752,Derby,"Derby, UK",52.9225301,-1.4746186
753,Derby Road,"Derby Road, Burton-on-Trent DE14 1RN, UK",52.8374942,-1.6128332
754,Derker,"Derker Street, Oldham, UK",53.5483282,-2.0951804
755,Devonport,"Devonport TAS, Australia",-41.1783532,146.3609534
756,Devons Road,"Devons Road, London E3, UK",51.52267,-0.01759
757,Dewsbury,"Dewsbury, West Yorkshire, UK",53.689833,-1.6296949
758,Didcot Parkway,"Didcot Parkway, Didcot, Oxfordshire OX11, UK",51.6109554,-1.2428748
759,Digby and Sowton,"Digby & Sowton, Exeter, Devon EX2, UK",50.7139764,-3.4735739
760,Dilton Marsh,"Dilton Marsh, Wiltshire, UK",51.248123,-2.217128
761,Dinas Powys,"Dinas Powys, Vale of Glamorgan, UK",51.433799,-3.215782
762,Dingle Road,"Dingle Road, Penarth, Vale of Glamorgan CF64, UK",51.4400519,-3.1805994
763,Dingwall,"Dingwall, Highland, UK",57.595347,-4.428411
764,Dinsdale,"Dinsdale, Middleton Saint George, Darlington DL2, UK",54.5147386,-1.467075
765,Dinting,"Dinting, Glossop, Derbyshire SK13, UK",53.4493454,-1.9702957
766,Disley,"Disley, Cheshire East, UK",53.35833,-2.042044
767,Diss,"Diss, Norfolk, UK",52.376491,1.108394
768,Dockyard,"Dockyard, Clock Tower Shopping Mall, Bermuda",32.3252185,-64.8345923
769,Dodworth,"Dodworth, South Yorkshire, UK",53.540062,-1.524437
770,Dolau,"Dolau, Powys LD1, UK",52.292138,-3.258049
771,Doleham,"Doleham, Hastings, East Sussex TN35, UK",50.9185826,0.6100044
772,Dolgarrog,"Dolgarrog, Conwy LL32, UK",53.185394,-3.842482
773,Dollis Hill,"Dollis Hill, London NW10, UK",51.55196,-0.23904
774,Dolwyddelan,"Dolwyddelan, Conwy LL25, UK",53.053941,-3.886577
775,Doncaster,"Doncaster, South Yorkshire, UK",53.52282,-1.128462
776,Dorchester South,"Dorchester South, Dorchester, Dorset DT1, UK",50.7092808,-2.4372405
777,Dorchester West,"Dorchester West, Dorchester, Dorset DT1, UK",50.7109425,-2.4425388
778,Dore,"Dore, Sheffield, South Yorkshire S17, UK",53.3273877,-1.5397674
779,Dorking,"Dorking, Surrey, UK",51.232202,-0.332378
780,Dorking West,"Dorking West, Dorking, Surrey RH4, UK",51.2362218,-0.3399556
781,Dormans,"Dormans, Lingfield, Surrey RH7, UK",51.1557867,-0.004281
782,Dorridge,"Dorridge, West Midlands, UK",52.370734,-1.761667
783,Dove Holes,"Dove Holes, Derbyshire SK17, UK",53.2984129,-1.891299
784,Dovercourt,"Dovercourt, Harwich, Essex CO12, UK",51.929604,1.2663819
785,Dover Priory,"Dover Priory, Dover, Kent CT17, UK",51.1257055,1.3053254
786,Dovey Junction,"Dovey Junction, Machynlleth, Powys SY20, UK",52.5643724,-3.9239108
787,Downham Market,"Downham Market, Norfolk, UK",52.606612,0.385472
788,Drayton Green,"Drayton Green, London W7, UK",51.5166157,-0.3301718
789,Drayton Park,"Drayton Park, London N5, UK",51.5527705,-0.1054826
790,Drem,"Drem, East Lothian EH39, UK",56.009091,-2.78554
791,Driffield,"Driffield, East Riding of Yorkshire YO25, UK",54.005996,-0.443377
792,Droitwich Spa,"Droitwich Spa, Worcestershire WR9, UK",52.2688661,-2.1445949
793,Dronfield,"Dronfield, Derbyshire S18, UK",53.302279,-1.467959
794,Drumchapel,"Drumchapel, Glasgow, Glasgow City G15, UK",55.910752,-4.376152
795,Drumfrochar,"Drumfrochar, Greenock, Inverclyde PA15, UK",55.94124,-4.7747461
796,Drumgelloch,"Drumgelloch, Airdrie, North Lanarkshire ML6, UK",55.8673481,-3.9488715
797,Drumry,"Drumry, Clydebank, West Dunbartonshire G81, UK",55.9073769,-4.3955541
798,Duddeston,"Duddeston, West Midlands B7, UK",52.4891,-1.8826
799,Dudley Port,"Dudley Port, Tipton, West Midlands DY4, UK",52.524665,-2.0494738
800,Dudley Street,"Dudley Street, West Melbourne VIC 3003, Australia",-37.8101214,144.9499082
801,Duffield,"Duffield, Derbyshire DE56, UK",52.984696,-1.487313
802,Duirinish,"Duirinish, Highland IV40, UK",57.317601,-5.679396
803,Duke Street,"Duke Street, Londonderry, Derry BT47 6DQ, UK",54.9909086,-7.3140535
804,Dullatur,"Dullatur, North Lanarkshire G68, UK",55.967112,-4.004761
805,Dullingham,"Dullingham, Cambridgeshire CB8, UK",52.195133,0.383761
806,Dumbarton Central,"Dumbarton Central, Broadmeadow Industrial Estate, Dumbarton, West Dunbartonshire G82, UK",55.9466469,-4.566903
807,Dumbarton East,"Dumbarton East, Dumbarton, West Dunbartonshire G82, UK",55.942239,-4.5541193
808,Dumbreck,"Dumbreck, Glasgow, Glasgow City G41, UK",55.836178,-4.304512
809,Dumfries,"Dumfries, Dumfries and Galloway, UK",55.070859,-3.60512
810,Dumpton Park,"Dumpton Park, Ramsgate, Kent CT11, UK",51.3457052,1.4258447
811,Dunbar,"Dunbar, East Lothian, UK",56.002087,-2.516737
812,Dunblane,"Dunblane, Stirling FK15, UK",56.183877,-3.967449
813,Dunbridge,"Dunbridge, Hampshire SO51, UK",51.035297,-1.548544
814,Duncraig,"Duncraig WA, Australia",-31.8341204,115.7835905
815,Dundee,"Dundee, Dundee City, UK",56.462018,-2.970721
816,Dundonald Road,"Dundonald Road, Wimbledon, London SW19, UK",51.41755,-0.20765
817,Dunfermline,"Dunfermline, Fife, UK",56.071741,-3.452151
818,Dunfermline Queen Margaret,"Dunfermline Queen Margaret, Dunfermline, Fife KY12, UK",56.0805681,-3.421465
819,Dunkeld & Birnam,"Birnam, Perth and Kinross PH8, UK",56.55805,-3.576425
820,Dunlop,"Dunlop, East Ayrshire KA3, UK",55.712608,-4.532135
821,Dunrobin Castle,"Dunrobin Castle, Golspie, Sutherland KW10 6SF, UK",57.9816646,-3.9455905
822,Dunton Green,"Dunton Green, Kent, UK",51.293989,0.168881
823,Durham,"Durham, County Durham, UK",54.77525,-1.584852
824,Durrington-On-Sea,"Durrington-On-Sea, Goring-by-Sea, Worthing, West Sussex BN12, UK",50.8175181,-0.4114437
825,Dyce,"Dyce, Aberdeen City, UK",57.203514,-2.190188
826,Dyffryn Ardudwy,"Dyffryn Ardudwy, Snowdonia National Park, Dyffryn Ardudwy, Gwynedd LL44, UK",52.7888659,-4.1046505
827,Eaglescliffe,"Egglescliffe, Stockton-on-Tees TS16, UK",54.512614,-1.355031
828,Ealing Broadway,"Broadway, London, UK",51.5102289,-0.3243575
829,Ealing Broadway (Underground),"Broadway, London, UK",51.5102289,-0.3243575
830,Ealing Common,"Ealing Common, London W5, UK",51.51014,-0.28824
831,Earlestown,"Earlestown, Newton-le-Willows, Merseyside WA12, UK",53.452247,-2.659147
832,Earley,"Earley, Wokingham, UK",51.4308125,-0.9211178
833,Earls Court,"Earls Court, London SW5, UK",51.4903405,-0.1958622
834,Earlsfield,"Earlsfield, London SW18, UK",51.4419714,-0.1876738
835,Earlswood (Surrey),"Earlswood (Surrey), Redhill, Surrey RH1, UK",51.2273249,-0.170797
836,Earlswood (West Midlands),"Earlswood, Warwickshire, UK",52.365569,-1.831061
837,East Acton,"East Acton, White City, London W12, UK",51.51661,-0.24723
838,East Boldon,"East Boldon, Tyne and Wear, UK",54.943156,-1.422718
839,East Boldon (Metro),"East Boldon, East Boldon Metro (N-bound), East Boldon, Tyne and Wear NE36, UK",54.94655,-1.42176
840,Eastbourne,"Eastbourne, East Sussex, UK",50.768035,0.290472
841,Eastbrook,"Eastbrook, Dinas Powys, Vale of Glamorgan CF64, UK",51.4376339,-3.2061467
842,Eastcote,"Eastcote, Pinner, Greater London HA5, UK",51.58225,-0.39658
843,East Croydon,"East Croydon, Croydon, Greater London CR0, UK",51.37486,-0.09239
844,East Croydon (Tram),"Therapia Lane Tram Depot (Stop), Croydon, Greater London CR0, UK",51.387028,-0.1347
845,East Didsbury,"East Didsbury, Manchester M20, UK",53.4093227,-2.2219952
846,East Dulwich,"East Dulwich, London Borough of Southwark, London, UK",51.4543339,-0.074029
847,Easterhouse,"Easterhouse, Glasgow, Glasgow City G34, UK",55.864597,-4.113792
848,East Farleigh,"East Farleigh, Kent, UK",51.251788,0.484321
849,East Finchley,"East Finchley, London N2, UK",51.58713,-0.16499
850,East Garforth,"Garforth, West Yorkshire, UK",53.792149,-1.389877
851,East Grinstead,"East Grinstead, West Sussex, UK",51.128742,-0.014468
852,East Ham,"East Ham, London E6, UK",51.528737,0.055472
853,Eastham Rake,"Eastham Rake, Birkenhead, Merseyside CH62, UK",53.3075528,-2.9811321
854,East India,"East India, Poplar, London E14, UK",51.50936,-0.0023
855,East Kilbride,"East Kilbride, South Lanarkshire, UK",55.7643524,-4.1769988
856,Eastleigh,"Eastleigh, Hampshire, UK",50.967182,-1.374688
857,East Malling,"East Malling, Kent, UK",51.287435,0.440026
858,East Midlands Parkway,"East Midlands Parkway, Nottingham, Nottinghamshire NG11, UK",52.8633626,-1.2631081
859,East Putney,"East Putney, London SW15, UK",51.4592,-0.21098
860,East Tilbury,"East Tilbury, Thurrock, UK",51.465666,0.429357
861,East Worthing,"East Worthing, Worthing, West Sussex BN14, UK",50.8216358,-0.3548678
862,Ebbsfleet International,"Ebbsfleet International, Gravesend, Kent DA11, UK",51.4429712,0.3209502
863,Ebbw Vale Parkway,"Ebbw Vale Parkway, Ebbw Vale, Blaenau Gwent NP23, UK",51.7571458,-3.1961116
864,Eccles,"Eccles, UK",53.482449,-2.340598
865,Eccles Road,"Eccles Road, Norwich, Norfolk NR16, UK",52.4709033,0.969942
866,Eccleston Park,"Saint Helens Road, Eccleston Park, Prescot, Merseyside, UK",53.4342327,-2.7902079
867,Edale,"Edale, Derbyshire S33, UK",53.367226,-1.818237
868,Edenbridge,"Edenbridge, Kent TN8, UK",51.196259,0.065451
869,Edenbridge Town,"Edenbridge, Kent TN8, UK",51.196259,0.065451
870,Eden Park,"Eden Park, Beckenham, Greater London BR3, UK",51.3900886,-0.0263286
871,Edge Hill,"Edge Hill, Liverpool, Merseyside L7, UK",53.4026312,-2.9464828
872,Edgware,"Edgware, Greater London, UK",51.615786,-0.262034
873,Edgware Road,"Edgware Road, London, UK",51.518915,-0.1684662
874,Edinburgh,"Edinburgh, City of Edinburgh, UK",55.953252,-3.188267
875,Edinburgh Park,"Edinburgh Park, Edinburgh, City of Edinburgh EH12, UK",55.9275441,-3.3076628
876,Edmonton Green,"Edmonton Green, London N9, UK",51.624929,-0.0610873
877,Effingham Junction,"Effingham Junction, East Horsley, Surrey KT24, UK",51.2914916,-0.4199425
878,Eggesford,"Eggesford, Devon, UK",50.8701196,-3.8699594
879,Egham,"Egham, Surrey, UK",51.428825,-0.547876
880,Egton,"Egton, North Yorkshire YO21, UK",54.448889,-0.753408
881,Elephant And Castle,"Elephant and Castle, London SE1, UK",51.494345,-0.100733
882,Elephant & Castle,"Elephant & Castle, London SE1, UK",51.49453,-0.10058
883,Elgin,"Elgin, Moray IV30, UK",57.649454,-3.318485
884,Ellesmere Port,"Ellesmere Port, Cheshire West and Chester, UK",53.279812,-2.897404
885,Elmers End,"Elmers End, Beckenham, Greater London BR3, UK",51.398893,-0.04345
886,Elm Park,"Elm Park, Hornchurch, Greater London RM12, UK",51.5461215,0.2031612
887,Elmstead Woods,"Elmstead Woods, Chislehurst, Greater London BR7, UK",51.4171158,0.0442999
888,Elmswell,"Elmswell, Suffolk IP30, UK",52.236946,0.912511
889,Elsecar,"Elsecar, South Yorkshire, UK",53.496778,-1.414144
890,Elsenham,"Elsenham, Essex CM22, UK",51.914461,0.237391
891,Elstree & Borehamwood,"Elstree & Borehamwood, Borehamwood, Hertfordshire WD6, UK",51.6528876,-0.2797754
892,Eltham,"Eltham, New Zealand",-39.4304603,174.2993428
893,Elton & Orston,"Elton & Orston, Nottingham, Nottinghamshire NG13, UK",52.9521557,-0.8555073
894,Elverson Road,"Elverson Road, London SE8, UK",51.46907,-0.0167
895,Ely,"Ely, Cambridgeshire, UK",52.399539,0.262363
896,Embankment,"Embankment, London WC2N, UK",51.50706,-0.12264
897,Emerson Park,"Emerson Park, Hornchurch, Greater London RM11, UK",51.5686424,0.2201398
898,Emirates Royal Docks,"Emirates Royal Docks, London E16, UK",51.50777,0.01768
899,Emsworth,"Emsworth, Hampshire, UK",50.848132,-0.937928
900,Enfield Chase,"Enfield Chase, Enfield, Greater London EN2, UK",51.653255,-0.0906696
901,Enfield Lock,"Enfield Lock, Enfield, Greater London EN3, UK",51.6709227,-0.0285061
902,Enfield Town,"Enfield, Greater London, UK",51.654465,-0.081814
903,Entwistle,"Entwistle, AB T0E, Canada",53.591125,-114.989931
904,Epping,"Epping, Essex CM16, UK",51.700328,0.108655
905,Epsom,"Epsom, Surrey, UK",51.336036,-0.267382
906,Epsom Downs,"Epsom Downs, Sandton, South Africa",-26.0420738,28.0120215
907,Erdington,"Erdington, Birmingham, West Midlands B24, UK",52.521042,-1.840395
908,Eridge,"Eridge, Rotherfield, East Sussex TN3, UK",51.0889611,0.2014594
909,Erith,"Erith, Greater London, UK",51.480818,0.174675
910,Esher,"Esher, Surrey, UK",51.369487,-0.365927
911,Essex Road,"Essex Road, London N1, UK",51.5407057,-0.0962496
912,Etchingham,"Etchingham, East Sussex TN19, UK",51.008992,0.438366
913,Etruria,"Etruria, Stoke-on-Trent ST1, UK",53.023955,-2.19388
914,Euston,"London Euston, London NW1, UK",51.5281365,-0.133898
915,Euston Square,"Euston Square, London NW1, UK",51.5256,-0.1358
916,Euxton Balshaw Lane,"Euxton Balshaw Lane, Euxton, Lancashire PR7, UK",53.6604941,-2.6720206
917,Evesham,"Evesham, Worcestershire WR11, UK",52.092149,-1.94677
918,Ewell East,"Ewell East, Epsom, Surrey KT17, UK",51.3452968,-0.2415047
919,Ewell West,"Ewell West, Epsom, Surrey KT17, UK",51.3500419,-0.256962
920,Exeter Central,"Exeter Central, Exeter, Devon EX4, UK",50.7264718,-3.533291
921,Exeter St. David's,"Exeter St Davids, Exeter, Devon EX4, UK",50.7292626,-3.5433009
922,Exeter St. Thomas,"Exeter St Thomas, Exeter, Devon EX4, UK",50.7171351,-3.538851
923,Exhibition Centre Glasgow,"Exhibition Centre (Glasgow), Glasgow, Glasgow City G3, UK",55.8615444,-4.283574
924,Exmouth,"Exmouth, Devon, UK",50.619957,-3.413702
925,Exton,"Exton, PA, USA",40.0325817,-75.6274583
926,Eynsford,"Eynsford, Kent DA4, UK",51.366456,0.211539
927,Failsworth,"Failsworth, UK",53.508131,-2.164444
928,Fairbourne,"Fairbourne, Gwynedd LL38, UK",52.696651,-4.054346
929,Fairfield,"Fairfield, CA, USA",38.2493581,-122.0399663
930,Fairlie,"Fairlie, New Zealand",-44.0991203,170.8291141
931,Fairlop,"Fairlop, Ilford, Greater London IG6, UK",51.59562,0.09103
932,Fairwater,"Fairwater, Cardiff, UK",51.4939443,-3.2426565
933,Falconwood,"Falconwood, London SE9, UK",51.459153,0.0793312
934,Falkirk Grahamston,"Falkirk Grahamston, Falkirk FK1, UK",56.0026075,-3.785039
935,Falkirk High,"Falkirk High, Falkirk FK1, UK",55.9918092,-3.7922361
936,Falls Of Cruachan,"Falls of Cruachan, Dalmally, Argyll and Bute PA33, UK",56.393869,-5.1124565
937,Falmer,"Falmer, East Sussex BN1, UK",50.8639282,-0.0806349
938,Falmouth Docks,"Falmouth Docks, Falmouth, Cornwall TR11, UK",50.1506932,-5.0560745
939,Falmouth Town,"Falmouth, Cornwall, UK",50.152571,-5.06627
940,Fareham,"Fareham, Hampshire, UK",50.8548464,-1.1865868
941,Farnborough (Main),"Farnborough (Main), Farnborough, Hampshire GU14, UK",51.2966032,-0.7557079
942,Farnborough North,"Farnborough North, Farnborough, Hampshire GU14, UK",51.3020428,-0.7430094
943,Farncombe,"Farncombe, Godalming, Surrey GU7, UK",51.197685,-0.602646
944,Farnham,"Farnham, Surrey, UK",51.214321,-0.798802
945,Farningham Road,"Farningham Road, Sutton at Hone, Kent DA4, UK",51.4016637,0.2354799
946,Farnworth,"Farnworth, UK",53.545838,-2.40396
947,Farringdon,"Farringdon, London EC1M, UK",51.5201672,-0.1051787
948,Fauldhouse,"Fauldhouse, West Lothian EH47, UK",55.827606,-3.7093
949,Faversham,"Faversham, Kent ME13, UK",51.315994,0.889358
950,Faygate,"Faygate, West Sussex RH12, UK",51.093344,-0.262954
951,Fazakerley,"Fazakerley, Liverpool, Merseyside L9, UK",53.46119,-2.926989
952,Fearn,"Fearn, Highland IV20, UK",57.772191,-3.952938
953,Featherstone,"Featherstone, West Yorkshire, UK",53.674814,-1.356949
954,Felixstowe,"Felixstowe, Suffolk, UK",51.961726,1.351255
955,Fellgate,"Fellgate, Jarrow, Tyne and Wear NE32, UK",54.9534417,-1.4908073
956,Feltham,"Feltham, Greater London, UK",51.444148,-0.410772
957,Fenchurch Street,"Fenchurch Street, London EC3M, UK",51.5120551,-0.0803931
958,Feniton,"Feniton, Devon EX14, UK",50.7846819,-3.272552
959,Fenny Stratford,"Fenny Stratford, Bletchley, Milton Keynes MK2, UK",51.997973,-0.722885
960,Fernhill,"Fernhill, Rutherglen, South Lanarkshire G73, UK",55.8055556,-4.2052778
961,Ferriby,"Ferriby, North Ferriby, East Riding of Yorkshire HU14, UK",53.7171721,-0.5078354
962,Ferryside,"Ferryside, Carmarthenshire, UK",51.767649,-4.3688969
963,Ffairfach,"Ffairfach, Carmarthenshire SA19, UK",51.875086,-3.993773
964,Fieldway,"Fieldway, Croydon, Greater London CR0, UK",51.35132,-0.02451
965,Filey,"Filey, North Yorkshire, UK",54.210076,-0.290594
966,Filton Abbey Wood,"Filton Abbeywood, Stoke Gifford, South Gloucestershire BS34, UK",51.5049359,-2.5624319
967,Finchley Central,"Finchley Central, London N3, UK",51.60092,-0.1925
968,Finchley Road,"Finchley Road, London, UK",51.5636538,-0.196933
969,Finchley Road & Frognal,"Finchley Road & Frognal, London NW3, UK",51.5502665,-0.1831152
970,Finsbury Park,"Finsbury Park, London N4, UK",51.563296,-0.107435
971,Finsbury Park (Underground),"Finsbury Park, London N4, UK",51.563296,-0.107435
972,Finstock,"Finstock, Oxfordshire OX7, UK",51.846142,-1.474956
973,Fishbourne,"Fishbourne, West Sussex PO18, UK",50.836429,-0.820257
974,Fishersgate,"Fishersgate, Portslade, West Sussex BN41, UK",50.8342263,-0.2193955
975,Fishguard Harbour,"Fishguard Harbour, Goodwick, Pembrokeshire SA64, UK",52.0115571,-4.9856702
976,Fiskerton,"Fiskerton, Lincolnshire LN3, UK",53.234525,-0.428062
977,Fitzwilliam,"Fitzwilliam, NH, USA",42.7806396,-72.141749
978,Five Ways,"Five Ways, Birmingham, West Midlands B15, UK",52.4711079,-1.9129491
979,Fleet,"Fleet, Hampshire, UK",51.277283,-0.842655
980,Flimby,"Flimby, Cumbria, UK",54.686798,-3.515417
981,Flitwick,"Flitwick, Central Bedfordshire MK45, UK",52.0043665,-0.4964708
982,Flixton,"Flixton, Urmston M41, UK",53.4426381,-2.3846163
983,Flowery Field,"Flowery Field, Hyde SK14, UK",53.4618691,-2.0810527
984,Folkestone Central,"Folkestone Central, Folkestone, Kent CT19, UK",51.0828895,1.1695146
985,Folkestone West,"Folkestone West, Folkestone, Kent CT20, UK",51.0845881,1.1539355
986,Ford,"Ford, KS, USA",37.6540069,-99.8124935
987,Forest Gate,"Forest Gate, London E7, UK",51.545791,0.024397
988,Forest Hill,"Forest Hill, London SE23, UK",51.4392781,-0.0531312
989,Formby,"Formby, Merseyside, UK",53.558271,-3.068743
990,Forres,"Forres, Moray IV36, UK",57.609791,-3.61998
991,Forsinard,"Forsinard, Highland KW13, UK",58.36679,-3.8954912
992,Fort Matilda,"Fort Matilda, Greenock, Inverclyde PA16, UK",55.9590229,-4.7952473
993,Fort William,"Fort William, Highland, UK",56.819817,-5.105218
994,Four Oaks,"Four Oaks, NC 27524, USA",35.4448836,-78.4269489
995,Foxfield,"Foxfield, Cumbria LA20, UK",54.258559,-3.214541
996,Foxton,"Foxton, Cambridgeshire, UK",52.114938,0.058251
997,Frant,"Frant, East Sussex TN3, UK",51.096314,0.268194
998,Fratton,"Fratton, Portsmouth, UK",50.8008,-1.0711
999,Freshfield,"Freshfield, Formby, Merseyside L37, UK",53.5660677,-3.071827
1000,Freshford,"Freshford, Bath and North East Somerset BA2, UK",51.338321,-2.305724
1001,Frimley,"Frimley, Surrey, UK",51.316221,-0.743239
1002,Frinton,"Frinton-on-Sea, Essex, UK",51.830433,1.247224
1003,Frizinghall,"Frizinghall, Bradford, West Yorkshire BD2, UK",53.8203831,-1.7690048
1004,Frodsham,"Frodsham, Cheshire West and Chester WA6, UK",53.297083,-2.729463
1005,Frome,"Frome, Somerset BA11, UK",51.230751,-2.320096
1006,Frosterley,"Frosterley, County Durham DL13, UK",54.72701,-1.96539
1007,Fulham Broadway,"Fulham Broadway, London SW6 1AA, UK",51.4800048,-0.1957797
1008,Fulwell,"Fulwell, Oxfordshire NN13, UK",52.005745,-1.09561
1009,Furness Vale,"Furness Vale, Derbyshire SK23, UK",53.345229,-1.987592
1010,Furze Platt,"Furze Platt, Maidenhead, Windsor and Maidenhead SL6, UK",51.539496,-0.736832
1011,Gainsborough Central,"Gainsborough Central, Gainsborough, Lincolnshire DN21, UK",53.3996039,-0.769696
1012,Gainsborough Lea Road,"Gainsborough Lea Road, Gainsborough, Lincolnshire DN21, UK",53.3861087,-0.7685808
1013,Gallions Reach,"Gallions Reach, London E6, UK",51.50894,0.07158
1014,Gants Hill,"Gants Hill, Ilford, Greater London IG2, UK",51.579364,0.064863
1015,Garelochhead,"Garelochhead, Argyll and Bute, UK",56.082071,-4.8357849
1016,Garforth,"Garforth, West Yorkshire, UK",53.792149,-1.389877
1017,Gargrave,"Gargrave, North Yorkshire BD23, UK",53.984331,-2.101438
1018,Garrowhill,"Garrowhill, Baillieston, Glasgow, Glasgow City G33, UK",55.8552327,-4.1294475
1019,Garscadden,"Garscadden, Glasgow, Glasgow City G13, UK",55.8876876,-4.3649892
1020,Garsdale,"Garsdale, Cumbria LA10, UK",54.301254,-2.391163
1021,Garswood,"Garswood, Ashton-in-Makerfield, Merseyside WN4, UK",53.4891409,-2.66949
1022,Gartcosh,"Gartcosh, North Lanarkshire G69, UK",55.887307,-4.084701
1023,Garth (Mid-Glamorgan),"Garth Olwg Day Nursery, Church Village, Pontypridd, Mid Glamorgan CF38 1RQ, UK",51.5655865,-3.3223164
1024,Garth (Powys),"Garth (Powys), Llangammarch Wells, Powys LD4, UK",52.1332443,-3.5299152
1025,Garve,"Garve, Highland IV23, UK",57.6130219,-4.6883909
1026,Gathurst,"Gathurst, Wigan WN6, UK",53.5594165,-2.6943926
1027,Gatley,"Gatley, UK",53.39286,-2.2446419
1028,Gatwick Airport,"Gatwick Airport (LGW), West Sussex RH6 0NP, UK",51.1554548,-0.1650585
1029,Georgemas Junction,"Georgemas Junction, Halkirk, Highland KW12, UK",58.5136084,-3.4521275
1030,George Street,"George Street, NSW, Australia",-33.9547504,151.1053691
1031,Gerrards Cross,"Gerrards Cross, Buckinghamshire, UK",51.582362,-0.5575
1032,Gidea Park,"Gidea Park, Romford, Greater London RM2, UK",51.5876619,0.2109897
1033,Giffnock,"Giffnock, East Renfrewshire, UK",55.800047,-4.295033
1034,Giggleswick,"Giggleswick, North Yorkshire BD24, UK",54.072968,-2.2897949
1035,Gilberdyke,"Gilberdyke, East Riding of Yorkshire HU15, UK",53.754398,-0.740441
1036,Gilfach Fargoed,"Gilfach Fargoed, Bargoed, Caerphilly CF81, UK",51.6842506,-3.2265775
1037,Gillingham (Dorset),"Gillingham, Dorset, UK",51.036731,-2.277885
1038,Gillingham (Kent),"Gillingham (Kent), Gillingham, Medway ME7, UK",51.3865632,0.5498789
1039,Gilshochill,"Gilshochill, Glasgow, Glasgow City G23, UK",55.8973311,-4.2826699
1040,Gipsy Hill,"Gipsy Hill, London SE19 1NL, UK",51.4235704,-0.0835421
1041,Girvan,"Girvan, South Ayrshire, UK",55.240164,-4.854218
1042,Glan Conwy,"Llansanffraid Glan Conwy, Conwy, UK",53.268083,-3.7935
1043,Glasgow Central,"Glasgow Central, Glasgow, Glasgow City G1, UK",55.860524,-4.2580414
1044,Glasgow Queen Street,"Queen Street, Glasgow, Glasgow City, UK",55.8599848,-4.2517391
1045,Glasshoughton,"Glasshoughton, Castleford, West Yorkshire WF10, UK",53.7149882,-1.3452618
1046,Glazebrook,"Glazebrook, Warrington, UK",53.4283697,-2.4585202
1047,Gleneagles,"Gleneagles, Perth and Kinross PH3, UK",56.262051,-3.725752
1048,Glenfinnan,"Glenfinnan, Highland PH37, UK",56.871564,-5.4446329
1049,Glengarnock,"Glengarnock, North Ayrshire KA14, UK",55.740888,-4.678341
1050,Glenrothes with Thornton,"Glenrothes with Thornton, Thornton, Fife KY1, UK",56.1623482,-3.1430171
1051,Glenrothes with Thornton,"Glenrothes with Thornton, Thornton, Fife KY1, UK",56.1623482,-3.1430171
1052,Glossop,"Glossop, Derbyshire, UK",53.4433284,-1.948907
1053,Gloucester,"Gloucester, UK",51.8642449,-2.238156
1054,Gloucester Road,"Gloucester Road, London SW7, UK",51.49432,-0.18263
1055,Glynde,"Glynde, East Sussex BN8, UK",50.862087,0.0688769
1056,Gobowen,"Gobowen, Shropshire, UK",52.897629,-3.040359
1057,Godalming,"Godalming, Surrey, UK",51.185732,-0.612808
1058,Godley,"Godley, Hyde SK14, UK",53.4542362,-2.0626242
1059,Godstone,"Godstone, Surrey, UK",51.247571,-0.067578
1060,Golders Green,"Golders Green, London NW11, UK",51.57226,-0.19401
1061,Goldhawk Road,"Goldhawk Road, London W12 8EN, UK",51.5006289,-0.2341097
1062,Goldthorpe,"Goldthorpe, South Yorkshire, UK",53.534601,-1.307202
1063,Golf Street,"Golf Street, Ladybank, Cupar, Fife KY15 7NT, UK",56.2793247,-3.1241238
1064,Golspie,"Golspie, Highland, UK",57.973406,-3.976086
1065,Gomshall,"Gomshall, Surrey GU5, UK",51.220174,-0.448237
1066,Goodge Street,"Goodge Street, London W1T, UK",51.5206,-0.13434
1067,Goodmayes,"Goodmayes, Ilford, Greater London IG3, UK",51.563297,0.11272
1068,Goodrington,"Goodrington, Paignton, Torbay TQ4, UK",50.416477,-3.561619
1069,Goole,"Goole, East Riding of Yorkshire DN14, UK",53.702941,-0.876381
1070,Goostrey,"Goostrey, Cheshire East CW4, UK",53.228117,-2.341043
1071,Gordon Hill,"Gordon Hill, Enfield, Greater London EN2, UK",51.6633361,-0.0945838
1072,Goring-By-Sea,"Goring-by-Sea, Worthing, West Sussex, UK",50.8129769,-0.422028
1073,Goring & Streatley,"Goring & Streatley, Reading, Oxfordshire RG8, UK",51.5214927,-1.133029
1074,Gorton,"Gorton, Manchester M18, UK",53.462873,-2.177212
1075,Gospel Oak,"Gospel Oak, London NW5, UK",51.556394,-0.148184
1076,Gourock,"Gourock, Inverclyde, UK",55.9591984,-4.8168799
1077,Govan,"Govan, Glasgow, Glasgow City G51, UK",55.862596,-4.312816
1078,Gowerton,"Gowerton, Swansea, UK",51.6480279,-4.042929
1079,Goxhill,"Goxhill, North Lincolnshire DN19, UK",53.678208,-0.332032
1080,Grange Hill,"Grange Hill, Wareham, Dorset BH20 5DF, UK",50.6359414,-2.1316532
1081,Grange-Over-Sands,"Grange-over-Sands, Cumbria, UK",54.191009,-2.910688
1082,Grange Park,"Grange Park, London N21, UK",51.6426082,-0.0973319
1083,Grangetown (South Glamorgan),"Grangetown, Cardiff CF11, UK",51.468037,-3.191215
1084,Grantham,"Grantham, Lincolnshire, UK",52.912524,-0.643582
1085,Grateley,"Grateley, Hampshire SP11, UK",51.176201,-1.604924
1086,Gravel Hill,"Gravel Hill, NB E8G, Canada",47.9108639,-66.121683
1087,Gravelly Hill,"Gravelly Hill, Birmingham, West Midlands B23, UK",52.5150091,-1.8525927
1088,Gravesend,"Gravesend, Kent, UK",51.441884,0.370759
1089,Grays,"Grays, Thurrock, UK",51.4723619,0.3246839
1090,Great Ayton,"Great Ayton, North Yorkshire TS9, UK",54.491018,-1.1402159
1091,Great Bentley,"Great Bentley, Essex, UK",51.855588,1.061692
1092,Great Chesterford,"Great Chesterford, Essex CB10, UK",52.062757,0.19682
1093,Great Coates,"Great Coates, North East Lincolnshire DN37, UK",53.570586,-0.138773
1094,Great Malvern,"Great Malvern, Worcestershire WR14, UK",52.112421,-2.327182
1095,Great Missenden,"Great Missenden, Buckinghamshire HP16, UK",51.702655,-0.70319
1096,Great Portland Street,"Great Portland Street, London, UK",51.5182673,-0.1419175
1097,Great Western Street,"Great Western Street, Manchester M14 4RA, UK",53.456237,-2.2384326
1098,Great Yarmouth,"Great Yarmouth, Norfolk, UK",52.598233,1.728047
1099,Greenbank,"Greenbank QLD 4124, Australia",-27.7196332,152.986016
1100,Greenfaulds,"Greenfaulds, Cumbernauld, North Lanarkshire G67, UK",55.9352259,-3.993091
1101,Greenfield,"Greenfield, UK",53.531971,-2.000692
1102,Greenford,"Greenford, Greater London, UK",51.531797,-0.34622
1103,Greenford (Underground),"Greenford, Greater London, UK",51.531797,-0.34622
1104,Greenhithe,"Greenhithe, Kent DA9, UK",51.4496723,0.2810687
1105,Green Lane,"Green Lane, Birkenhead, Merseyside CH41, UK",53.3832696,-3.0164147
1106,Greenock Central,"Greenock Central, Greenock, Inverclyde PA15, UK",55.945332,-4.7526141
1107,Greenock West,"Greenock West, Greenock, Inverclyde PA16, UK",55.9473283,-4.7678132
1108,Green Park,"Green Park, London W1J, UK",51.50695,-0.14276
1109,Green Road,"Green Road, North Down BT23 7PZ, UK",54.6313789,-5.6540724
1110,Greenwich,"Greenwich, London SE10, UK",51.4825766,-0.0076589
1111,Greenwich (Underground),"Greenwich, London SE10, UK",51.4825766,-0.0076589
1112,Gretna Green,"Gretna Green, Dumfries and Galloway DG16, UK",55.0047456,-3.0630827
1113,Grimsby Docks,"Grimsby Docks, Grimsby, North East Lincolnshire DN31, UK",53.5743443,-0.0756222
1114,Grimsby Town,"Grimsby, North East Lincolnshire, UK",53.567471,-0.080784
1115,Grindleford,"Grindleford, Derbyshire S32, UK",53.292524,-1.638913
1116,Grosmont,"Grosmont, North Yorkshire YO22, UK",54.43563,-0.7239
1117,Grove Park,"Grove Park, London SE12, UK",51.435473,0.0202789
1118,Guide Bridge,"Guide Bridge, Ashton-under-Lyne OL7, UK",53.481797,-2.111062
1119,Guildford,"Guildford, Surrey, UK",51.23622,-0.570409
1120,Guiseley,"Guiseley, West Yorkshire, UK",53.877118,-1.706645
1121,Gunnersbury,"Gunnersbury, London W4, UK",51.493352,-0.278887
1122,Gunnislake,"Gunnislake, Cornwall, UK",50.525289,-4.209577
1123,Gunton,"Gunton, Norwich, Norfolk NR11, UK",52.8663732,1.3491367
1124,Gwersyllt,"Gwersyllt, Wrexham, UK",53.076524,-3.021726
1125,Gypsy Lane,"Gypsy Lane, Nunthorpe, Redcar and Cleveland TS7, UK",54.5329025,-1.1794054
1126,Habrough,"Habrough, North East Lincolnshire DN40, UK",53.607852,-0.264949
1127,Hackbridge,"Hackbridge, Wallington, Greater London SM6, UK",51.373772,-0.150927
1128,Hackney Central,"Hackney Central, London E8, UK",51.5471173,-0.0568803
1129,Hackney Downs,"Hackney Downs, London E8, UK",51.548757,-0.0607922
1130,Hackney Wick,"Hackney Wick, London E9, UK",51.5434104,-0.0248921
1131,Haddenham & Thame Parkway,"Haddenham & Thame Parkway, Haddenham, Buckinghamshire HP17, UK",51.770859,-0.9421153
1132,Haddiscoe,"Haddiscoe, Norfolk NR14, UK",52.517879,1.601216
1133,Hadley Wood,"Hadley Wood, Barnet, Greater London EN4, UK",51.6686687,-0.1686827
1134,Hag Fold,"Hag Fold, Atherton M46, UK",53.5338673,-2.4948212
1135,Haggerston,"Haggerston, Northumberland TD15, UK",55.688064,-1.931171
1136,Hagley,"Hagley, Worcestershire, UK",52.427568,-2.1266759
1137,Hainault,"Hainault, Ilford, Greater London IG7, UK",51.608139,0.10079
1138,Hairmyres,"Hairmyres, East Kilbride, South Lanarkshire G75, UK",55.7619595,-4.2199968
1139,Hale,"Hale, UK",53.37891,-2.343509
1140,Halesworth,"Halesworth, Suffolk IP19, UK",52.343264,1.502642
1141,Halewood,"Halewood, Merseyside, UK",53.370573,-2.8209749
1142,Halifax,"Halifax, West Yorkshire, UK",53.72702,-1.85754
1143,Halling,"Halling, Medway, UK",51.352063,0.441702
1144,Hall I' Th' Wood,"Hall i' th' Wood Museum, Green Way, Bolton BL1 8UA, UK",53.600311,-2.419105
1145,Hall Road,"Hall Road, Waterloo, Merseyside L23, UK",53.4975008,-3.0496245
1146,Haltwhistle,"Haltwhistle, Northumberland NE49, UK",54.972237,-2.460856
1147,Hamble,"Hamble-le-Rice, Hampshire, UK",50.8588275,-1.3201169
1148,Hamilton Central,"Hamilton Central, Hamilton, South Lanarkshire ML3, UK",55.7731887,-4.0388742
1149,Hamilton West,"Hamilton, ON, Canada",43.2500208,-79.8660914
1150,Hammersmith (Metropolitan),"Metropolitan Police Service, Shepherds Bush Road, Hammersmith, London W6 7NX, UK",51.4946552,-0.2241027
1151,Hammersmith (Piccadilly/District),"Piccadilly, London, UK",51.5076359,-0.1409832
1152,Hammerton,"Hammerton, Kirk Hammerton, North Yorkshire YO26, UK",53.9961138,-1.2830382
1153,Hampden Park,"Hampden Park, Glasgow, Glasgow City G42 9BA",55.8257032,-4.2523862
1154,Hampstead,"Hampstead, London NW3, UK",51.5556715,-0.1762025
1155,Hampstead Heath,"Hampstead Heath, South Hill Park, London NW3 2QD, UK",51.5608964,-0.1509591
1156,Hampton,"Hampton, VA, USA",37.0298687,-76.3452218
1157,Hampton Court,"Hampton Court, Holywood, North Down BT18, UK",54.6387182,-5.8198812
1158,Hampton-In-Arden,"Hampton in Arden, West Midlands, UK",52.4253659,-1.70165
1159,Hampton Wick,"Hampton Wick, Greater London, UK",51.413541,-0.321331
1160,Hamstead,"Hampstead, London NW3, UK",51.5556715,-0.1762025
1161,Ham Street,"Ham Street, Somerset BA6, UK",51.110199,-2.635733
1162,Hamworthy,"Hamworthy, Poole BH15, UK",50.719733,-2.0109
1163,Handborough,"Hanborough, Long Hanborough, Oxfordshire OX29, UK",51.8251626,-1.3735083
1164,Handforth,"Handforth, Cheshire East, UK",53.350181,-2.215772
1165,Handsworth Booth Street,"Booth Street, Birmingham, West Midlands B21 0NH, UK",52.502962,-1.9472599
1166,Hanger Lane,"Hanger Lane, London W5, UK",51.53018,-0.29268
1167,Hanwell,"Hanwell, Oxfordshire OX17, UK",52.0909959,-1.366271
1168,Hapton,"Hapton, Lancashire, UK",53.780477,-2.31182
1169,Harlech,"Harlech, Gwynedd LL46, UK",52.858894,-4.107858
1170,Harlesden,"Harlesden, London NW10, UK",51.534933,-0.247334
1171,Harlesden (Underground),"Harlesden, London NW10, UK",51.534933,-0.247334
1172,Harlington,"Harlington, Greater London, UK",51.487296,-0.434749
1173,Harlow Mill,"Harlow Mill, Harlow, Essex CM20, UK",51.79037,0.1323345
1174,Harlow Town,"Harlow, Essex, UK",51.767787,0.087806
1175,Harold Wood,"Harold Wood, Romford, Greater London RM3, UK",51.590448,0.235288
1176,Harpenden,"Harpenden, Hertfordshire, UK",51.81846,-0.358953
1177,Harrietsham,"Harrietsham, Kent ME17, UK",51.2428529,0.677922
1178,Harringay,"Harringay, London, UK",51.582426,-0.09966
1179,Harringay Green Lanes,"Green Lanes, Harringay, London N4, UK",51.5766178,-0.0987575
1180,Harrington,"Harrington, Northamptonshire NN6, UK",52.412133,-0.865671
1181,Harrington Road,"Harrington Road, Chennai, Tamil Nadu",13.0693469,80.2367659
1182,Harrow And Wealdstone,"Wealdstone, Harrow, Greater London HA3, UK",51.597901,-0.337076
1183,Harrow On The Hill,"Harrow on the Hill, Harrow, Greater London HA1, UK",51.5697199,-0.339957
1184,Harrow-On-The-Hill,"Harrow on the Hill, Harrow, Greater London HA1, UK",51.5697199,-0.339957
1185,Harrow & Wealdstone,"Harrow & Wealdstone, Harrow, Greater London HA1, UK",51.5917141,-0.3345197
1186,Hartford,"Hartford, CT, USA",41.7637111,-72.6850932
1187,Hartlebury,"Hartlebury, Worcestershire, UK",52.337686,-2.229982
1188,Hartlepool,"Hartlepool, UK",54.691745,-1.212926
1189,Hartwood,"Hartwood, North Lanarkshire ML7, UK",55.808598,-3.84065
1190,Harwich International,"Harwich International, Harwich, Essex CO12, UK",51.9473013,1.2551549
1191,Harwich Town,"Harwich, Essex, UK",51.934731,1.260297
1192,Hassocks,"Hassocks, West Sussex, UK",50.9246755,-0.1460982
1193,Hastings,"Hastings, East Sussex, UK",50.854259,0.573453
1194,Hatch End,"Hatch End, Pinner, Greater London HA5, UK",51.608801,-0.370075
1195,Hatfield,"Hatfield, Hertfordshire, UK",51.763366,-0.22309
1196,Hatfield Peverel,"Hatfield Peverel, Essex CM3, UK",51.775127,0.59301
1197,Hatfield & Stainforth,"Hatfield & Stainforth, Stainforth, South Yorkshire DN7, UK",53.588734,-1.0233818
1198,Hathersage,"Hathersage, Derbyshire S32, UK",53.329824,-1.655851
1199,Hattersley,"Hattersley, Hyde SK14, UK",53.450077,-2.03713
1200,Hatton,"Hatton, Aberdeenshire AB42, UK",57.424267,-1.916167
1201,Hatton Cross,"Hatton Cross, Hounslow, Greater London TW6, UK",51.46674,-0.42317
1202,Havant,"Havant, Hampshire, UK",50.859216,-0.983996
1203,Havenhouse,"Havenhouse, Skegness, Lincolnshire PE24, UK",53.1144942,0.2731701
1204,Haverfordwest,"Haverfordwest, Pembrokeshire, UK",51.800475,-4.971319
1205,Hawarden,"Hawarden, Flintshire CH5, UK",53.183649,-3.028345
1206,Hawarden Bridge,"Hawarden Bridge, Deeside, Flintshire CH5, UK",53.2180882,-3.0327166
1207,Hawkhead,"Hawkhead, Paisley, Renfrewshire PA1, UK",55.8421839,-4.398836
1208,Haydon Bridge,"Haydon Bridge, Northumberland NE47, UK",54.975823,-2.249734
1209,Haydons Road,"Haydons Road, London SW19, UK",51.4254458,-0.1887899
1210,Hayes & Harlington,"Hayes & Harlington, Hayes, Greater London UB3, UK",51.5030949,-0.4206634
1211,Hayes (Kent),"Hayes (Kent), Bromley, Greater London BR2, UK",51.3763324,0.0105839
1212,Haymarket,"Haymarket NSW 2000, Australia",-33.8791934,151.2033903
1213,Haywards Heath,"Haywards Heath, West Sussex, UK",50.999041,-0.106333
1214,Hazel Grove,"Hazel Grove, UK",53.376299,-2.112004
1215,Headcorn,"Headcorn, Kent TN27, UK",51.16943,0.619856
1216,Headingley,"Headingley, MB, Canada",49.8754945,-97.4087013
1217,Headstone Lane,"Headstone Lane, Harrow, Greater London HA2, UK",51.60265,-0.3571973
1218,Heald Green,"Heald Green, UK",53.370435,-2.226762
1219,Healing,"Healing, North East Lincolnshire, UK",53.578764,-0.16419
1220,Heath High Level,"Heath High Level, Cardiff CF23, UK",51.5164299,-3.1815498
1221,Heath Low Level,"Heath Low Level, Cardiff CF23, UK",51.5156612,-3.1819766
1222,Heathrow Terminal 4,"Terminal 4, Heathrow Airport (LHR), Hounslow, Greater London TW6, UK",51.459972,-0.4473012
1223,Heathrow Terminal 5,"Terminal 5, Wellington Road, Heathrow Airport (LHR), Hounslow, Greater London TW6 2GT, UK",51.47278,-0.48756
1224,Heathrow Terminals 123,"Terminal 5, Wellington Road, Heathrow Airport (LHR), Hounslow, Greater London TW6 2GT, UK",51.47278,-0.48756
1225,Heaton Chapel,"Heaton Chapel, Stockport SK4, UK",53.4255746,-2.1790398
1226,Hebden Bridge,"Hebden Bridge, West Yorkshire HX7, UK",53.743304,-2.013021
1227,Heckington,"Heckington, Lincolnshire NG34, UK",52.983613,-0.299062
1228,Hedge End,"Hedge End, Hampshire SO30, UK",50.911274,-1.306678
1229,Hednesford,"Hednesford, Staffordshire, UK",52.7115579,-2.0003829
1230,Heighington,"Heighington, Lincolnshire LN4, UK",53.212471,-0.459257
1231,Helensburgh Central,"Helensburgh Central, Helensburgh, Argyll and Bute G84, UK",56.0041996,-4.7327384
1232,Helensburgh Upper,"Helensburgh Upper, Helensburgh, Argyll and Bute G84, UK",56.0123546,-4.7297847
1233,Hellifield,"Hellifield, North Yorkshire BD23, UK",54.005534,-2.21869
1234,Helmsdale,"Helmsdale, Highland KW8, UK",58.117261,-3.653533
1235,Helsby,"Helsby, Cheshire West and Chester WA6, UK",53.273014,-2.769426
1236,Hemel Hempstead,"Hemel Hempstead, Hertfordshire, UK",51.753241,-0.448632
1237,Hendon,"Hendon, London NW4, UK",51.5862459,-0.220009
1238,Hendon Central,"Hendon Central, London NW4, UK",51.5833,-0.2264
1239,Hengoed,"Hengoed, Caerphilly CF82, UK",51.646519,-3.23131
1240,Henley-In-Arden,"Henley-in-Arden, Warwickshire B95, UK",52.292549,-1.779866
1241,Hensall,"Hensall, North Yorkshire DN14, UK",53.703877,-1.101339
1242,Hereford,"Hereford, UK",52.056398,-2.715974
1243,Herne Bay,"Herne Bay, Kent, UK",51.370922,1.127771
1244,Herne Hill,"Herne Hill, London SE24, UK",51.456053,-0.097537
1245,Heron Quays,"Heron Quays, Canary Wharf, London E14, UK",51.50338,-0.02139
1246,Hersham,"Hersham, Surrey, UK",51.368017,-0.400788
1247,Hertford East,"Hertford East, Hertford, Hertfordshire SG14, UK",51.7990392,-0.0729128
1248,Hertford North,"Hertford North, Hertford, Hertfordshire SG14, UK",51.798861,-0.0917599
1249,Hessle,"Hessle, East Riding of Yorkshire, UK",53.723805,-0.434858
1250,Heswall,"Heswall, Merseyside, UK",53.3284285,-3.0987304
1251,Heworth,"Heworth, York, UK",53.96992,-1.0565
1252,Hexham,"Hexham, Northumberland NE46, UK",54.972665,-2.1121439
1253,Heyford,"Heyford, Bicester, Oxfordshire OX25, UK",51.9191972,-1.2992523
1254,Heysham Harbour,"Harbour House, Glasson Dock, Lancaster, Lancashire LA2 0BU, UK",53.9987772,-2.84742
1255,Higham,"Higham on the Hill, Leicestershire CV13, UK",52.557137,-1.440243
1256,Highams Park,"Highams Park, London E4, UK",51.607554,-0.003815
1257,High Barnet,"High Barnet, Barnet, Greater London EN5, UK",51.65054,-0.19427
1258,Highbridge & Burnham,"Highbridge & Burnham, Highbridge, Somerset TA9, UK",51.2181504,-2.9721629
1259,High Brooms,"High Brooms, Royal Tunbridge Wells, Kent TN4, UK",51.149615,0.27311
1260,Highbury And Islington,"Highbury, London N5, UK",51.5498969,-0.0980629
1261,Highbury & Islington,"Highbury & Islington, London N5, UK",51.5461777,-0.1037373
1262,Highgate,"Highgate, London Borough of Camden, London N6, UK",51.5711882,-0.1490688
1263,High Street (Glasgow),"High Street (Glasgow), Glasgow, Glasgow City G1, UK",55.8595578,-4.2401037
1264,High Street Kensington,"High Street, Greater London, UK",51.5356383,-0.2440935
1265,Hightown,"Hightown, Merseyside, UK",53.524383,-3.060387
1266,High Wycombe,"High Wycombe, Buckinghamshire, UK",51.628611,-0.748229
1267,Hildenborough,"Hildenborough, Kent TN11, UK",51.216814,0.239516
1268,Hillfoot,"Hillfoot, Bearsden, East Dunbartonshire G61, UK",55.920085,-4.3202586
1269,Hillhead,"Hillhead, Glasgow, Glasgow City G11, UK",55.875195,-4.2919607
1270,Hillingdon,"London Borough of Hillingdon, Greater London, UK",51.5351832,-0.4481378
1271,Hillington West,"Hillington West, Glasgow, Renfrewshire G52, UK",55.8560146,-4.3715654
1272,Hillside,"Hillside, Southport, Merseyside PR8, UK",53.6221203,-3.0247135
1273,Hilsea,"Hilsea, Portsmouth, UK",50.83,-1.07
1274,Hinchley Wood,"Hinchley Wood, Esher, Surrey KT10, UK",51.376758,-0.34188
1275,Hinckley,"Hinckley, Leicestershire, UK",52.5454549,-1.37667
1276,Hindley,"Hindley, UK",53.532996,-2.580635
1277,Hinton Admiral,"Hinton Admiral, Christchurch, Hampshire BH23, UK",50.752628,-1.7141195
1278,Hitchin,"Hitchin, Hertfordshire, UK",51.94921,-0.283414
1279,Hither Green,"Hither Green, London SE13, UK",51.45051,-0.004453
1280,Hockley,"Hockley, Essex SS5, UK",51.6004497,0.6463915
1281,Holborn,"Holborn, London WC1V, UK",51.51758,-0.12045
1282,Holland Park,"Holland Park, London W8, UK",51.5030127,-0.2031505
1283,Hollingbourne,"Hollingbourne, Kent ME17, UK",51.265793,0.640225
1284,Hollinwood,"Hollinwood, Failsworth OL9, UK",53.518209,-2.148021
1285,Holloway Road,"Holloway Road, London N7, UK",51.5527,-0.11322
1286,Holmes Chapel,"Holmes Chapel, Cheshire East CW4, UK",53.201306,-2.356242
1287,Holmwood,"Holmwood, Surrey RH5, UK",51.1922075,-0.3258764
1288,Holton Heath,"Holton Heath, Poole, Dorset BH16, UK",50.7113965,-2.0778389
1289,Holyhead,"Holyhead, Isle of Anglesey, UK",53.309441,-4.633038
1290,Holytown,"Holytown, North Lanarkshire, UK",55.8197452,-3.9748068
1291,Honeybourne,"Honeybourne, Worcestershire WR11, UK",52.091054,-1.835207
1292,Honiton,"Honiton, Devon EX14, UK",50.799468,-3.188683
1293,Honley,"Honley, West Yorkshire, UK",53.602267,-1.794173
1294,Honor Oak Park,"Honor Oak Park, London SE23, UK",51.4498236,-0.0457194
1295,Hook,"Hook, Hampshire, UK",51.280906,-0.963043
1296,Hooton,"Hooton, Cheshire West and Chester CH66, UK",53.299599,-2.955819
1297,Hope (Clwyd),"Hope Street, Rhosllanerchrugog, Clwyd LL11 1BB, UK",53.0114475,-3.060469
1298,Hope (Derbyshire),"Hope, Derbyshire S33, UK",53.347996,-1.744718
1299,Hopton Heath,"Hopton Heath, Craven Arms, Shropshire SY7, UK",52.3913841,-2.9119098
1300,Horley,"Horley, Surrey, UK",51.173516,-0.172109
1301,Hornchurch,"Hornchurch, Greater London, UK",51.562254,0.218605
1302,Hornsey,"Hornsey, London N8, UK",51.5870447,-0.1218884
1303,Horsforth,"Horsforth, West Yorkshire, UK",53.842177,-1.636099
1304,Horsham,"Horsham, West Sussex, UK",51.062883,-0.325858
1305,Horsley,"Horsley, Gloucestershire GL6, UK",51.68068,-2.236348
1306,Horton In Ribblesdale,"Horton in Ribblesdale, North Yorkshire BD24, UK",54.144371,-2.292748
1307,Horwich Parkway,"Horwich Parkway, Horwich BL6, UK",53.5781205,-2.5396659
1308,Hoscar,"Hoscar, Ormskirk, Lancashire L40, UK",53.5977825,-2.8044203
1309,Hough Green,"Hough Green, Widnes, Halton WA8, UK",53.378645,-2.771564
1310,Hounslow,"Hounslow, Greater London, UK",51.4609218,-0.373149
1311,Hounslow East,"Hounslow East, Hounslow, Greater London TW3, UK",51.47321,-0.35645
1312,Hounslow West,"Hounslow West, Hounslow, Greater London TW3, UK",51.47347,-0.38652
1313,Hove,"Hove, The City of Brighton and Hove, UK",50.8279319,-0.168749
1314,Hoveton & Wroxham,"Hoveton & Wroxham, The Broads Authority, Hoveton, Norfolk NR12, UK",52.715596,1.4080193
1315,Howden,"Howden, East Riding of Yorkshire DN14, UK",53.745894,-0.868877
1316,Howwood,"Howwood, Renfrewshire, UK",55.810615,-4.554573
1317,How Wood (Hertfordshire),"How Wood, Saint Albans, Hertfordshire AL2, UK",51.7175602,-0.3516133
1318,Hoxton,"Hoxton, London N1, UK",51.535638,-0.089344
1319,Hoylake,"Hoylake, Merseyside, UK",53.393238,-3.1762801
1320,Hubberts Bridge,"Hubbert's Bridge, Lincolnshire PE20, UK",52.975453,-0.114799
1321,Hucknall,"Hucknall, Nottinghamshire, UK",53.034152,-1.20289
1322,Huddersfield,"Huddersfield, West Yorkshire, UK",53.645792,-1.785035
1323,Hull,"Kingston upon Hull, UK",53.7456709,-0.3367413
1324,Humphrey Park,"Humphrey Park, Stretford M32, UK",53.4522432,-2.3275375
1325,Huncoat,"Huncoat, Lancashire BB5, UK",53.7708178,-2.3383735
1326,Hungerford,"Hungerford, West Berkshire RG17, UK",51.412345,-1.517995
1327,Hunmanby,"Hunmanby, North Yorkshire, UK",54.1818121,-0.3203292
1328,Huntingdon,"Huntingdon, Cambridgeshire, UK",52.33146,-0.182552
1329,Huntly,"Huntly, Aberdeenshire AB54, UK",57.445936,-2.7878059
1330,Hunt's Cross,"Hunt's Cross, Liverpool, Merseyside L25, UK",53.360607,-2.851696
1331,Hurst Green,"Hurst Green, East Sussex, UK",51.0179339,0.469397
1332,Hutton Cranswick,"Hutton Cranswick, East Riding of Yorkshire YO25, UK",53.955363,-0.442819
1333,Huyton,"Huyton, Merseyside L36, UK",53.4119868,-2.8395604
1334,Hyde Central,"Hyde Central, Hyde SK14, UK",53.4518979,-2.0852493
1335,Hyde North,"Hyde North, Hyde SK14, UK",53.4648143,-2.0854567
1336,Hyde Park Corner,"Hyde Park Corner, London W1J, UK",51.50303,-0.15242
1337,Hykeham,"Hykeham, North Hykeham, Lincolnshire LN6, UK",53.195025,-0.6001952
1338,Hyndland,"Hyndland, Glasgow, Glasgow City G11, UK",55.8797472,-4.3146535
1339,Hythe,"Hythe, Kent, UK",51.071739,1.081937
1340,IBM,"Ibm, 5142 Ibm, Austria",48.0640122,12.955185
1341,Ibrox,"Ibrox, Glasgow, Glasgow City G51, UK",55.853598,-4.303857
1342,Ickenham,"Ickenham, Greater London, UK",51.563966,-0.442299
1343,Ifield,"Ifield, Crawley, West Sussex RH11, UK",51.125082,-0.204875
1344,Ilford,"Ilford, Greater London, UK",51.556619,0.076251
1345,Ilkley,"Ilkley, West Yorkshire, UK",53.925486,-1.822817
1346,Imperial Wharf,"Imperial Wharf, London SW10, UK",51.475066,-0.182949
1347,Ince,"Ince-in-Makerfield, UK",53.536413,-2.619493
1348,Ince & Elton,"Ince & Elton, Elton, Cheshire West and Chester CH2, UK",53.2766214,-2.816522
1349,Ingatestone,"Ingatestone, Essex, UK",51.673794,0.3899059
1350,Insch,"Insch, Aberdeenshire AB52, UK",57.341405,-2.611882
1351,Invergordon,"Invergordon, Highland, UK",57.688106,-4.172882
1352,Invergowrie,"Invergowrie, Perth and Kinross DD2, UK",56.46075,-3.061716
1353,Inverkeithing,"Inverkeithing, Fife, UK",56.030043,-3.398795
1354,Inverkip,"Inverkip, Inverclyde, UK",55.907032,-4.870339
1355,Inverness,"Inverness, Highland, UK",57.477773,-4.224721
1356,Invershin,"Invershin, Highland IV27, UK",57.929987,-4.400766
1357,Inverurie,"Inverurie, Aberdeenshire AB51, UK",57.283474,-2.373995
1358,Irlam,"Irlam, UK",53.444266,-2.42142
1359,Irvine,"Irvine, North Ayrshire, UK",55.6115669,-4.6696364
1360,Island Gardens,"Island Gardens, Isle of Dogs, London E14, UK",51.48781,-0.01011
1361,Isleworth,"Isleworth, Greater London, UK",51.467121,-0.329003
1362,Islip,"Islip, Oxfordshire OX5, UK",51.823063,-1.232683
1363,Iver,"Iver, Buckinghamshire, UK",51.5201939,-0.509572
1364,Ivybridge,"Ivybridge, Devon PL21, UK",50.390202,-3.920431
1365,Jewellery Quarter,"Jewellery Quarter, Birmingham, West Midlands, UK",52.489,-1.91
1366,Johnstone,"Johnstone, Renfrewshire, UK",55.837324,-4.513915
1367,Jordanhill,"Jordanhill, Glasgow, Glasgow City G11, UK",55.8826995,-4.3249027
1368,Kearsley,"Kearsley, UK",53.539253,-2.374366
1369,Kearsney,"Kearsney Avenue, Temple Ewell, Dover, Kent CT16 3BU, UK",51.148682,1.2761644
1370,Keighley,"Keighley, West Yorkshire, UK",53.867795,-1.912358
